,street_1,city,state,zip,sale_price,date,latitude,longitude
0,11024 DOVER RD,Apple Creek,OH,44606,65000,2006-10-05,40.724398,-81.784024
1,7651 BUSS RD # A,Apple Creek,OH,44606,200000,2010-04-23,40.726153000000004,-81.83613000000001
2,LINCOLN WAY E,Apple Creek,OH,44606,650000,2017-06-20,40.73247,-81.79985
3,18294 JERICHO RD,Dalton,OH,44618,54000,2013-04-29,40.733698,-81.66329
4,CHIPPEWA RD,Apple Creek,OH,44606,142800,2016-08-04,40.73247,-81.79985
5,5353 MILLERSBURG RD,Wooster,OH,44691,164000,2018-10-05,40.731927,-81.93938299999999
6,13887 JERICHO RD,Dalton,OH,44618,48400,2017-06-19,40.737662,-81.733552
7,4797 MILLERSBURG RD,Wooster,OH,44691,50000,2012-10-22,40.740747,-81.932523
8,3610 FREDERICKSBURG RD,Apple Creek,OH,44606,250000,2015-10-30,40.73247,-81.79985
9,4361 KIDRON RD,Kidron,OH,44636,65000,2018-08-14,40.74184,-81.74515
10,4936 BLUEBIRD LN,Dalton,OH,44618,200000,2008-02-19,40.739937,-81.734463
11,12733 EMERSON RD,Apple Creek,OH,44606,130000,2017-11-27,40.741033,-81.760147
12,4353 S HONEYTOWN RD,Apple Creek,OH,44606,175000,2015-05-20,40.744233,-81.87670899999999
13,5008 SHREVE RD,Wooster,OH,44691,374500,2017-01-30,40.743248,-81.985712
14,355 WOODBURY CIR,Dalton,OH,44618,134190,2006-05-15,40.747227,-81.741892
15,1782 E TOLBERT RD,Wooster,OH,44691,179500,2017-11-20,40.748232,-81.91949100000001
16,114 SPRING RUN DR,Apple Creek,OH,44606,164000,2017-10-27,40.743184,-81.826779
17,4574 KIDRON RD,Dalton,OH,44618,125000,2007-02-26,40.747026,-81.744939
18,364 WOODBURY CIR,Dalton,OH,44618,155669,2005-12-23,40.747091999999995,-81.74153199999999
19,362 WOODBURY CIR,Dalton,OH,44618,163500,2006-04-19,40.747116999999996,-81.74153199999999
20,4350 DEERFIELD AVE S,Dalton,OH,44618,138800,2018-11-19,40.748977000000004,-81.648152
21,11345 BLACHLEYVILLE RD,Wooster,OH,44691,76000,2013-10-15,40.751019,-82.121059
22,208 MILL ST,Apple Creek,OH,44606,150000,2017-09-20,40.749435,-81.831509
23,4111 BATDORF RD,Wooster,OH,44691,300000,2010-04-28,40.750834000000005,-81.963414
24,10785 BLACHLEYVILLE RD,Wooster,OH,44691,50000,2010-04-19,40.752471,-82.11806899999999
25,732 W MAIN ST,Apple Creek,OH,44606,23500,2005-11-17,40.755596999999995,-81.84562700000001
26,5082 DOVER RD,Apple Creek,OH,44606,100000,2013-04-12,40.756949,-81.871391
27,3705 KIDRON RD,Dalton,OH,44618,155500,2009-12-03,40.754945,-81.745341
28,10536 HACKETT RD,Apple Creek,OH,44606,258327,2008-09-09,40.755914000000004,-81.789208
29,14950 HACKETT RD,Apple Creek,OH,44606,110500,2015-11-18,40.756040000000006,-81.716854
30,3695 PIGEON RUN RD SW,Massillon,OH,44647,165500,2018-12-04,40.756396,-81.56115799999999
31,2706 S CARR RD,Apple Creek,OH,44606,18000,2012-10-17,40.762476,-81.794023
32,13533 NUSSBAUM RD,Dalton,OH,44618,389000,2018-02-12,40.760835,-81.737775
33,7967 BLACHLEYVILLE RD,Wooster,OH,44691,600000,2014-12-12,40.760956,-82.09579000000001
34,2972 S JEFFERSON RD,Wooster,OH,44691,167000,2016-04-28,40.761115999999994,-82.02324200000001
35,12814 BARRS RD SW,Massillon,OH,44647,87000,2005-11-17,40.764371000000004,-81.59607199999999
36,3255 BRIGADOON CIR,Dalton,OH,44618,125000,2006-11-13,40.764613,-81.63516700000001
37,3650 BLACHLEYVILLE RD,Wooster,OH,44691,88500,2012-11-19,40.767753000000006,-82.02341700000001
38,2544 EARL ST,Wooster,OH,44691,156000,2017-12-04,40.767951000000004,-81.96150300000001
39,1960 CYPRUS DR SE,Massillon,OH,44646,233000,2009-04-29,40.768327,-81.49460400000001
40,2534 KIDRON RD,Orrville,OH,44667,150000,2009-01-15,40.769037,-81.745072
41,2460 URBANA AVE SE,Massillon,OH,44646,157000,2009-01-09,40.770185,-81.48975300000001
42,2350 URBANA AVE SE,Massillon,OH,44646,153400,2013-09-26,40.770227,-81.491355
43,DEERFIELD AVE N,Dalton,OH,44618,95000,2018-12-17,40.771809999999995,-81.68914000000001
44,374 N KOHLER RD,Dalton,OH,44618,585000,2006-12-18,40.771809999999995,-81.68914000000001
45,2217 S ELYRIA RD,Wooster,OH,44691,41000,2017-01-06,40.770709000000004,-82.08464599999999
46,BAIR RD,Dalton,OH,44618,200000,2006-12-20,40.771809999999995,-81.68914000000001
47,GOUDY RD,Dalton,OH,44618,300000,2011-03-08,40.771809999999995,-81.68914000000001
48,3748 SYLVAN RD,Wooster,OH,44691,1000,2018-01-23,40.772403000000004,-81.892584
49,GARFIELD ST,Dalton,OH,44618,84700,2014-04-11,40.771809999999995,-81.68914000000001
50,1975 AUGUSTA DR SE,Massillon,OH,44646,375000,2014-04-18,40.774208,-81.496736
51,2337 17TH ST SW,Massillon,OH,44647,26000,2011-07-14,40.775712,-81.545428
52,2131 MOUNT EATON RD S,Dalton,OH,44618,625000,2010-11-16,40.774808,-81.69241099999999
53,1230 FOREST AVE SE,Massillon,OH,44646,65000,2006-09-29,40.776973,-81.50973499999999
54,10272 MORTON RD SW,Massillon,OH,44647,90000,2018-05-25,40.776603,-81.546223
55,3219 SYLVAN RD,Wooster,OH,44691,235000,2018-09-26,40.77711,-81.896856
56,9103 ELY RD,Apple Creek,OH,44606,52200,2018-08-21,40.777612,-81.810553
57,63 MARION AVE SE,Massillon,OH,44646,15000,2010-09-01,40.778224,-81.512925
58,1011 S CARR RD,Orrville,OH,44667,130000,2015-05-04,40.77852,-81.788949
59,11179 ANGLING RD,Wooster,OH,44691,155000,2006-10-31,40.778736,-82.123751
60,1736 15TH ST SE,Massillon,OH,44646,1262400,2010-08-13,40.777884,-81.506671
61,13444 GOUDY RD,Dalton,OH,44618,235000,2018-10-25,40.778620000000004,-81.74176899999999
62,1704 SHAWNEE AVE SE,Massillon,OH,44646,4300,2007-11-16,40.780184000000006,-81.503764
63,1740 WESTWOOD CIR,Wooster,OH,44691,175000,2018-01-31,40.778892,-81.96714899999999
64,1304 PEARL AVE SE,Massillon,OH,44646,66500,2012-04-30,40.780615999999995,-81.509241
65,797 LEANN ST,Wooster,OH,44691,132500,2014-04-17,40.779418,-81.957041
66,1370 BENSON ST SW,Massillon,OH,44647,35900,2005-06-22,40.781633,-81.556462
67,1447 S FUNK RD,Wooster,OH,44691,127500,2011-09-09,40.780195,-82.117586
68,1227 OIL CITY RD,Wooster,OH,44691,150000,2017-01-19,40.781568,-81.906617
69,1254 HURON RD SE,Massillon,OH,44646,10000,2018-10-29,40.782439000000004,-81.500784
70,1433 MADISON AVE,Wooster,OH,44691,35000,2018-03-06,40.782452,-81.932214
71,511 NEALE AVE SW,Massillon,OH,44647,6200,2008-08-11,40.782599,-81.525256
72,730 NEALE AVE SW,Massillon,OH,44647,60000,2005-08-08,40.782932,-81.529282
73,1225 BARNARD RD,Wooster,OH,44691,154900,2014-09-03,40.781444,-81.853851
74,561 GEIGER AVE SW,Massillon,OH,44647,30200,2018-01-16,40.783306,-81.526761
75,1705 MOHICAN AVE SE,Massillon,OH,44646,48000,2014-09-29,40.783496,-81.503176
76,1330 BARNES DR,Wooster,OH,44691,110000,2017-10-23,40.782577,-81.95545899999999
77,3329 SOUTHWAY ST SW,Massillon,OH,44646,410000,2010-09-29,40.782775,-81.47241899999999
78,12692 ARNOLD RD,Orrville,OH,44667,144900,2016-07-14,40.782787,-81.752678
79,1335 FRANK DR,Wooster,OH,44691,140000,2007-09-07,40.782819,-81.951971
80,1287 3RD ST SE,Massillon,OH,44646,5000,2014-09-12,40.782340999999995,-81.511026
81,518 BEBB AVE SW,Massillon,OH,44647,11500,2009-12-11,40.784263,-81.52606899999999
82,529 GEIGER AVE SW,Massillon,OH,44647,81000,2005-04-19,40.783289,-81.52600000000001
83,1650 CEDARCREST AVE SW,Massillon,OH,44646,150000,2019-03-08,40.783363,-81.452101
84,731 WEBB AVE SW,Massillon,OH,44647,19900,2008-10-28,40.784752000000005,-81.530085
85,1724 CARLENE AVE SW,Massillon,OH,44647,154900,2017-06-02,40.78455,-81.54567
86,1822 CARLENE AVE SW,Massillon,OH,44647,175000,2017-06-30,40.784587,-81.547096
87,188 HARMONY ST NW,Massillon,OH,44647,132000,2008-08-18,40.784872,-81.565353
88,928 17TH ST SW,Massillon,OH,44647,98300,2015-10-02,40.785940999999994,-81.544442
89,107 EDWIN AVE SE,Massillon,OH,44646,11500,2007-08-06,40.785990999999996,-81.51639899999999
90,13618 ARNOLD RD,Dalton,OH,44618,223000,2005-07-29,40.784017,-81.743487
91,1066 S KOHLER RD,Orrville,OH,44667,123500,2011-09-01,40.785321,-81.754979
92,116 EDWIN AVE SE,Massillon,OH,44646,3100,2007-09-19,40.786294,-81.51636500000001
93,829 12TH ST SW,Massillon,OH,44647,52000,2006-05-23,40.786479,-81.536663
94,812 12TH ST SW,Massillon,OH,44647,62900,2012-01-26,40.786522,-81.536302
95,2303 TREMONT AVE SW,Massillon,OH,44647,36100,2011-03-28,40.786573,-81.55188199999999
96,905 JOHNSON ST SE,Massillon,OH,44646,15000,2013-03-11,40.786978999999995,-81.510664
97,816 2ND ST SE,Massillon,OH,44646,24900,2015-05-01,40.7872,-81.515383
98,2031 TREMONT AVE SW,Massillon,OH,44647,53000,2015-04-22,40.787424,-81.548518
99,1026 PERKINS DR,Wooster,OH,44691,92500,2008-10-27,40.78758,-81.930449
100,927 22ND ST SW,Massillon,OH,44647,115000,2009-06-09,40.786767,-81.550591
101,4982 14TH ST SW,Canton,OH,44710,99900,2015-04-29,40.788253999999995,-81.442854
102,71 25TH ST NW,Massillon,OH,44647,109000,2005-07-11,40.78775,-81.55505500000001
103,50 22ND ST NW,Massillon,OH,44647,62000,2005-03-21,40.788546999999994,-81.549835
104,307 15TH ST SW,Massillon,OH,44647,80000,2012-10-16,40.788565000000006,-81.541611
105,794 STARR RIDGE ST SE,Massillon,OH,44646,158600,2013-09-11,40.787957,-81.48435
106,4828 13TH ST SW,Canton,OH,44710,41300,2014-07-14,40.789035,-81.437545
107,894 KIDRON RD,Orrville,OH,44667,180000,2007-08-13,40.788342,-81.74519000000001
108,1606 TREMONT AVE SW,Massillon,OH,44647,10019,2017-03-07,40.789037,-81.543346
109,707 CHARLDON AVE SW,Massillon,OH,44646,111000,2005-06-29,40.788486,-81.477094
110,4920 13TH ST SW,Canton,OH,44710,77200,2005-05-18,40.789149,-81.440802
111,4948 13TH ST SW,Canton,OH,44710,22500,2014-11-21,40.789184999999996,-81.441958
112,875 KIDRON RD,Orrville,OH,44667,60000,2015-07-16,40.788553,-81.74555600000001
113,654 BUCKWALTER DR SW,Massillon,OH,44646,130000,2015-10-29,40.789116,-81.478084
114,1233 WESTERN AVE SW,Canton,OH,44710,98000,2014-04-01,40.790024,-81.434915
115,667 YOUNG ST SE,Massillon,OH,44646,11000,2010-06-03,40.790046000000004,-81.51261600000001
116,815 SPRUCE ST,Wooster,OH,44691,135000,2018-02-01,40.789374,-81.940924
117,431 OVERLOOK CIR,Dalton,OH,44618,310000,2013-06-05,40.788905,-81.696324
118,4702 13TH ST SW,Canton,OH,44710,36000,2018-10-25,40.788927,-81.43360600000001
119,707 27TH ST SE,Massillon,OH,44646,267300,2011-08-29,40.789885999999996,-81.48603299999999
120,2890 AUTUMN ST NW,Massillon,OH,44647,135100,2014-08-22,40.789595,-81.560535
121,324 6TH ST SW,Massillon,OH,44647,10000,2019-01-17,40.791408000000004,-81.52936600000001
122,805 HIGHLAND AVE SE,Massillon,OH,44646,20000,2010-04-06,40.79153,-81.514157
123,307 STEWART AVE SW,Massillon,OH,44646,62000,2009-06-12,40.791540000000005,-81.458042
124,295 WETMORE AVE SE,Massillon,OH,44646,55000,2017-03-28,40.791614,-81.51668000000001
125,204 23RD ST NW,Massillon,OH,44647,82000,2017-05-22,40.791917,-81.551451
126,1145 ELLWOOD AVE SW,Canton,OH,44710,155000,2019-04-18,40.791641,-81.43226700000001
127,305 5TH ST SW,Massillon,OH,44647,59500,2019-02-25,40.792194,-81.528494
128,308 5TH ST SW,Massillon,OH,44647,32000,2010-08-12,40.792206,-81.528113
129,216 WESTLAND AVE SW,Massillon,OH,44646,62500,2014-12-05,40.792218,-81.456608
130,5214 12TH ST SW,Canton,OH,44710,94500,2014-06-27,40.791129999999995,-81.449312
131,1121 MANOR AVE SW,Canton,OH,44710,144900,2017-09-28,40.791964,-81.430939
132,1115 MILES AVE SW,Canton,OH,44710,111000,2005-12-06,40.791663,-81.433548
133,1250 CYRIL AVE SW,Massillon,OH,44647,100000,2016-05-31,40.792713,-81.59361
134,110 DELAWARE AVE SW,Canton,OH,44710,69500,2016-12-09,40.792716999999996,-81.44481
135,522 3RD ST SE,Massillon,OH,44646,9900,2018-11-07,40.792792999999996,-81.516739
136,308 PROUDLEY AVE SW,Massillon,OH,44646,120000,2018-03-13,40.792363,-81.471335
137,133 BROOKLYN AVE SW,Canton,OH,44710,36000,2014-03-11,40.792865,-81.444158
138,3435 EDGEWOOD DR,Wooster,OH,44691,133500,2006-09-15,40.79238,-81.898916
139,15538 ARNOLD RD,Dalton,OH,44618,187500,2007-10-31,40.792427,-81.715802
140,211 15TH ST NW,Massillon,OH,44647,72500,2013-07-02,40.793081,-81.543098
141,217 CRESCENTVIEW DR SW,Massillon,OH,44646,66000,2015-02-24,40.793114,-81.478838
142,222 ROWFORD AVE SW,Massillon,OH,44646,79900,2015-03-26,40.793224,-81.477249
143,824 MAIN AVE W,Massillon,OH,44647,99500,2019-04-12,40.793378000000004,-81.53449
144,325 GNAU AVE SW,Massillon,OH,44646,107000,2014-03-18,40.792946,-81.481514
145,10001 MILAN,Jeromesville,OH,44840,139900,2005-02-28,40.79312,-82.17693
146,716 32ND ST NW,Massillon,OH,44647,30000,2009-02-17,40.793565,-81.570888
147,321 SOUTH AVE SE,Massillon,OH,44646,27000,2016-05-06,40.793834000000004,-81.51718199999999
148,3737 WILE RD,Wooster,OH,44691,350000,2013-07-29,40.792684,-82.006173
149,747 MANOR AVE SW,Canton,OH,44710,143000,2005-10-31,40.793447,-81.430865
150,740 MANOR AVE SW,Canton,OH,44710,96000,2013-05-15,40.794064,-81.430479
151,318 ARTHUR ST SE,Massillon,OH,44646,48500,2018-05-24,40.794098999999996,-81.492634
152,412 26TH ST NW,Massillon,OH,44647,75000,2013-10-10,40.794193,-81.555652
153,445 FORD ST NW,Massillon,OH,44647,121000,2008-11-19,40.793721000000005,-81.559227
154,120 WERTZ ST,Dalton,OH,44618,216000,2018-05-21,40.793397999999996,-81.695403
155,641 LINCOLN WAY W,Massillon,OH,44647,275000,2016-08-01,40.793903,-81.531603
156,131 STAR CIR SW,Massillon,OH,44646,93000,2017-09-01,40.794419,-81.475512
157,331 21ST ST NW,Massillon,OH,44647,35000,2018-08-13,40.79407,-81.54834100000001
158,CHEETA CT,Massillon,OH,44647,3400,2017-06-12,40.794509999999995,-81.56658
159,11TH ST SW,Massillon,OH,44647,57400,2015-05-28,40.794509999999995,-81.56658
160,EUCLID ST SW,Massillon,OH,44647,36900,2009-05-06,40.794509999999995,-81.56658
161,MONROE ST NW,Massillon,OH,44647,29700,2017-02-09,40.794509999999995,-81.56658
162,10751 FINEFROCK RD SW,Massillon,OH,44647,70000,2012-10-09,40.794509999999995,-81.56658
163,DEERMONT AVE NW,Massillon,OH,44647,36000,2018-09-26,40.794509999999995,-81.56658
164,429 26TH ST NW,Massillon,OH,44647,71000,2014-08-07,40.794497,-81.55597
165,17TH ST SW,Massillon,OH,44647,6700,2017-03-17,40.794509999999995,-81.56658
166,7TH ST SW,Massillon,OH,44647,9100,2012-12-31,40.794509999999995,-81.56658
167,3294 PERSIA CIR SW,Massillon,OH,44646,75000,2009-10-30,40.794676,-81.473365
168,BEBB AVE SW,Massillon,OH,44647,20154,2013-12-31,40.794509999999995,-81.56658
169,122 LINWAY AVE NW,Massillon,OH,44646,38500,2012-07-11,40.794761,-81.464294
170,378 25TH ST NW,Massillon,OH,44647,75000,2018-11-09,40.794775,-81.554376
171,VICEROY DR SW,Massillon,OH,44647,112200,2017-07-27,40.794509999999995,-81.56658
172,BONNIE BRAE DR SW,Massillon,OH,44647,164000,2007-10-09,40.794509999999995,-81.56658
173,1834 ALPHA ST NW,Massillon,OH,44647,179100,2018-11-05,40.794509999999995,-81.56658
174,3726 GREENWOOD PL SW,Canton,OH,44710,74100,2006-08-31,40.795066,-81.41756600000001
175,124 MILES AVE SW,Canton,OH,44710,116900,2012-12-21,40.794852,-81.43337199999999
176,JORMAY AVE NW,Massillon,OH,44647,25000,2019-04-18,40.794509999999995,-81.56658
177,509 TREMONT AVE SE,Massillon,OH,44646,6345,2007-11-01,40.795584000000005,-81.516322
178,136 DELVERNE AVE SW,Canton,OH,44710,64800,2015-09-24,40.795634,-81.427892
179,1115 BLUFF ST SE,Massillon,OH,44646,70000,2005-07-29,40.795683000000004,-81.511238
180,3242 LINCOLN WAY E,Massillon,OH,44646,220000,2010-11-04,40.79524,-81.473365
181,140 W HENRY ST,Wooster,OH,44691,84000,2017-04-03,40.795443,-81.940609
182,653 SCOTT PL NW,Massillon,OH,44647,235000,2019-01-18,40.795445,-81.56554200000001
183,122 WOODLAWN AVE NW,Canton,OH,44708,62500,2019-01-31,40.796,-81.435969
184,323 WESTLAND AVE NW,Massillon,OH,44646,66000,2008-08-12,40.796040000000005,-81.45687
185,4805 BARRIE ST NW,Canton,OH,44708,37000,2012-03-05,40.796104,-81.43634300000001
186,424 19TH ST NW,Massillon,OH,44647,49500,2012-10-30,40.79614,-81.546302
187,654 HANCOCK ST,Wooster,OH,44691,50600,2013-04-01,40.796215999999994,-81.93111999999999
188,434 24TH ST NW,Massillon,OH,44647,41600,2008-07-16,40.796254,-81.553146
189,135 26TH ST SE,Massillon,OH,44646,54400,2014-09-11,40.796394,-81.48619599999999
190,14 LINCOLN WAY W,Massillon,OH,44647,11339,2012-11-16,40.796559,-81.523364
191,236 S MARKET ST,Wooster,OH,44691,200000,2013-08-15,40.795907,-81.93915600000001
192,612 BELLFLOWER AVE SW,Canton,OH,44710,90000,2017-05-08,40.79676,-81.413119
193,3049 BAYER CIR NW,Massillon,OH,44646,57000,2019-05-13,40.796793,-81.47694200000001
194,340 EDEN AVE NW,Massillon,OH,44646,99900,2005-11-17,40.796184000000004,-81.453806
195,464 S JEFFERSON RD,Wooster,OH,44691,269500,2017-12-01,40.796228,-82.022645
196,5040 AURORA ST NW,Canton,OH,44708,96200,2006-03-22,40.796879,-81.444257
197,477 GROSVENOR AVE NW,Massillon,OH,44647,36010,2016-01-06,40.796932,-81.54903
198,934 ROSELAND AVE NW,Massillon,OH,44647,79000,2006-02-07,40.796962,-81.579645
199,650 E HENRY ST,Wooster,OH,44691,51000,2017-03-30,40.797195,-81.93095
200,130 PROSPECT ST,Wooster,OH,44691,66000,2018-09-28,40.797433000000005,-81.930359
201,1933 VERMONT AVE SE,Massillon,OH,44646,52000,2014-04-25,40.79746,-81.498366
202,125 25TH ST SE,Massillon,OH,44646,30000,2010-11-15,40.79703,-81.488126
203,8456 LINCOLN WAY E,Orrville,OH,44667,212000,2012-04-05,40.796524,-81.824125
204,183 HILLSIDE DR,Dalton,OH,44618,154000,2014-03-18,40.797404,-81.731637
205,2555 LINCOLNWAY FARMS RD,Wooster,OH,44691,282000,2015-01-27,40.797082,-81.985253
206,959 KENYON AVE NW,Massillon,OH,44647,161000,2006-10-18,40.797604,-81.583079
207,286 BARNARD RD,Wooster,OH,44691,103000,2007-12-03,40.797694,-81.853608
208,4639 MARCELLUS ST NW,Canton,OH,44708,86300,2007-07-19,40.797845,-81.432613
209,205 N BAUER RD,Wooster,OH,44691,56000,2018-11-02,40.798014,-81.919371
210,1031 MIAMI AVE NW,Massillon,OH,44647,86500,2013-06-07,40.79807,-81.584365
211,3410 TUSCARAWAS ST W,Canton,OH,44708,142500,2014-05-08,40.797748,-81.41334300000001
212,146 1ST ST NE,Massillon,OH,44646,91000,2016-04-11,40.798078000000004,-81.52244499999999
213,50 NORTH AVE NW,Massillon,OH,44647,100000,2015-07-10,40.797833000000004,-81.525036
214,633 27TH ST NW,Massillon,OH,44647,90000,2016-03-29,40.798208,-81.557366
215,222 ERIE ST N,Massillon,OH,44646,95000,2016-09-06,40.798232,-81.52387399999999
216,557 25TH ST NW,Massillon,OH,44647,72900,2014-09-19,40.798291,-81.55460699999999
217,223 W LIBERTY ST,Wooster,OH,44691,450000,2008-10-24,40.798075,-81.941559
218,2406 LINCOLN WAY E,Massillon,OH,44646,9588100,2016-07-05,40.798185,-81.489791
219,4530 MARCELLUS ST NW,Canton,OH,44708,70000,2008-04-08,40.798241,-81.429464
220,31 HIGH ST,Dalton,OH,44618,14090,2012-03-29,40.798671,-81.684
221,12 MILL ST S,Dalton,OH,44618,100000,2018-11-06,40.798724,-81.694728
222,5030 TIOGA ST NW,Canton,OH,44708,89400,2010-11-19,40.798735,-81.44364200000001
223,160 HILLTOP DR NW,Canton,OH,44708,119000,2005-08-12,40.798439,-81.423304
224,120 E LIBERTY ST # R-120C,Wooster,OH,44691,105000,2018-08-06,40.7985,-81.939402
225,1145 WALLACE AVE SE,Massillon,OH,44646,34500,2006-08-29,40.798978999999996,-81.510023
226,146 PALMER ST,Wooster,OH,44691,18675,2014-08-18,40.798593,-81.924932
227,132 N WALNUT ST,Wooster,OH,44691,425000,2012-04-09,40.798615000000005,-81.941888
228,128 NORTH AVE NE,Massillon,OH,44646,100100,2011-08-26,40.798646999999995,-81.522058
229,184 CHERRY LN,Wooster,OH,44691,120000,2008-05-16,40.798339,-81.98992
230,3141 JORMAY AVE NW,Massillon,OH,44647,35000,2005-08-22,40.798345,-81.568927
231,729 LINCOLN WAY E,Massillon,OH,44646,118200,2015-01-07,40.798882,-81.514193
232,314 W MAIN ST,Dalton,OH,44618,117500,2007-12-07,40.798897,-81.70129
233,13615 LINCOLN ST,North Lawrence,OH,44666,123500,2006-08-23,40.799052,-81.61046400000001
234,422 W LARWILL ST,Wooster,OH,44691,1500,2016-07-18,40.799475,-81.946673
235,424 CHERRY RD NW,Massillon,OH,44647,90000,2008-05-09,40.799507,-81.53193900000001
236,14489 LINCOLN ST,North Lawrence,OH,44666,14300,2015-06-16,40.799523,-81.626958
237,202 N MARKET ST,Wooster,OH,44691,225000,2007-03-26,40.799401,-81.94044699999999
238,133 N BEVER ST,Wooster,OH,44691,172000,2014-04-21,40.799436,-81.93679399999999
239,618 FEDERAL AVE NE,Massillon,OH,44646,85000,2018-10-31,40.799652,-81.515679
240,2619 HURSH PL NW,Canton,OH,44708,40000,2012-10-10,40.799735999999996,-81.404384
241,4454 2ND ST NW,Canton,OH,44708,62500,2011-06-07,40.799805,-81.427616
242,189 WERTZ AVE NW,Canton,OH,44708,3000,2006-05-09,40.799844,-81.407713
243,1073 32ND ST NW,Massillon,OH,44647,58900,2018-08-27,40.799929999999996,-81.570481
244,1164 REBECCA ST,Wooster,OH,44691,40250,2007-07-24,40.799997,-81.92378599999999
245,5103 BEACHVIEW CIR NW,Canton,OH,44708,129900,2009-03-31,40.799616,-81.446339
246,111 W SCHULTZ ST,Dalton,OH,44618,115500,2005-09-22,40.799631,-81.696955
247,216 MONTROSE AVE NW,Canton,OH,44708,106000,2016-10-05,40.799642999999996,-81.415403
248,914 REBECCA ST,Wooster,OH,44691,23500,2015-06-09,40.800112,-81.926603
249,247 MONTROSE AVE NW,Canton,OH,44708,110000,2017-05-30,40.800203,-81.415734
250,421 2ND ST NE,Massillon,OH,44646,2000,2017-04-04,40.800379,-81.522051
251,5008 2ND ST NW,Canton,OH,44708,74400,2009-06-19,40.800394,-81.443203
252,4204 GEORGIA ST NW,Massillon,OH,44646,169000,2017-08-31,40.799915999999996,-81.456144
253,3121 2ND ST NW,Canton,OH,44708,49900,2013-10-01,40.800447999999996,-81.409878
254,3211 2ND ST NW,Canton,OH,44708,79000,2017-05-17,40.800495,-81.411287
255,850 CHERRY RD NW,Massillon,OH,44647,16800,2013-06-25,40.800043,-81.53490699999999
256,216 BROAD AVE NW,Canton,OH,44708,76500,2005-02-24,40.800633000000005,-81.405178
257,336 BARDON ST,Wooster,OH,44691,78500,2017-05-23,40.800646,-81.92226099999999
258,16 PRES VANNES DR,Dalton,OH,44618,75000,2015-08-12,40.800711,-81.732322
259,422 EMERICK ST,Wooster,OH,44691,62500,2016-04-19,40.80133,-81.945542
260,301 SPINK ST,Wooster,OH,44691,27000,2010-05-21,40.801439,-81.93190899999999
261,209 BEALL AVE,Wooster,OH,44691,231000,2011-08-31,40.800384,-81.934228
262,114 YOUNG ST,Dalton,OH,44618,108100,2019-01-04,40.801018,-81.695693
263,318 N KOHLER RD,Orrville,OH,44667,15000,2006-12-11,40.801592,-81.755461
264,2612 ROSEWOOD PL NW,Canton,OH,44708,22100,2018-11-16,40.801658,-81.403728
265,319 BROAD AVE NW,Canton,OH,44708,59000,2011-08-09,40.801706,-81.405463
266,444 EMERICK ST,Wooster,OH,44691,92500,2014-09-09,40.801798,-81.945533
267,1166 EASTERN AVE,Wooster,OH,44691,58000,2010-01-12,40.801807000000004,-81.924243
268,306 BEALL AVE,Wooster,OH,44691,505000,2008-06-25,40.801621999999995,-81.93458100000001
269,1505 MARLYN PKWY NE,Massillon,OH,44646,140000,2017-05-31,40.801629999999996,-81.504983
270,412 N WALNUT ST,Wooster,OH,44691,117000,2017-07-14,40.80165,-81.942696
271,330 LINWOOD AVE NW,Canton,OH,44708,121000,2008-09-26,40.801687,-81.414085
272,344 BROAD AVE NW,Canton,OH,44708,25400,2016-10-07,40.802316,-81.405055
273,303 WHIPPLE AVE NW,Canton,OH,44708,164000,2012-12-28,40.801749,-81.426177
274,481 WOODLAND AVE,Wooster,OH,44691,67500,2012-05-25,40.802642999999996,-81.94865899999999
275,3250 RUSS RANCH ST NW,Massillon,OH,44646,96000,2006-08-04,40.802116,-81.47340799999999
276,546 NOLD AVE,Wooster,OH,44691,68000,2015-12-11,40.802892,-81.93341
277,336 MONTROSE AVE NW,Canton,OH,44708,83000,2014-12-05,40.801834,-81.41528199999999
278,432 10TH ST NE,Massillon,OH,44646,86000,2005-04-28,40.802989000000004,-81.513509
279,706 WESTERN DR,Wooster,OH,44691,70000,2007-10-23,40.803098999999996,-81.950625
280,403 VINCE AVE NW,Canton,OH,44708,76500,2014-09-22,40.803356,-81.4234
281,2209 MAYFLOWER AVE NW,Massillon,OH,44647,96000,2019-01-22,40.802459000000006,-81.549584
282,503 BROAD AVE NW,Canton,OH,44708,50000,2016-05-13,40.803453999999995,-81.405346
283,20 BALDAUF CT NE,Massillon,OH,44646,44000,2008-12-19,40.803469,-81.524753
284,735 3RD ST NE,Massillon,OH,44646,28000,2019-05-14,40.803548,-81.52141999999999
285,565 EMERICK ST,Wooster,OH,44691,73000,2007-08-06,40.803756,-81.94514000000001
286,556 PALMER ST,Wooster,OH,44691,35000,2007-10-18,40.80387,-81.924881
287,753 ERIE ST N,Massillon,OH,44646,56900,2017-10-11,40.804121,-81.525683
288,575 NORTHWESTERN AVE,Wooster,OH,44691,61000,2018-06-11,40.804124,-81.950239
289,2108 COLONIAL PKWY NE,Massillon,OH,44646,145000,2008-06-10,40.803414000000004,-81.49525600000001
290,1363 KENYON AVE NW,Massillon,OH,44647,105000,2014-04-08,40.803490000000004,-81.582673
291,2458 TANGLEWOOD DR NE,Massillon,OH,44646,160000,2008-09-25,40.803134,-81.48806400000001
292,606 N GRANT ST,Wooster,OH,44691,91900,2005-04-29,40.804483000000005,-81.94416
293,1295 LANEDALE ST NW,Massillon,OH,44647,150000,2005-04-20,40.803774,-81.597084
294,829 MILLSTONE LN NE,Massillon,OH,44646,208000,2017-06-30,40.803807,-81.488807
295,821 11TH ST NE,Massillon,OH,44646,27000,2011-09-15,40.804789,-81.511482
296,546 N BUCKEYE ST,Wooster,OH,44691,117000,2011-09-06,40.804039,-81.939988
297,3415 BIRCHDALE RD NW,Canton,OH,44708,67500,2015-08-11,40.804175,-81.413402
298,3330 CROWN POINT ST NW,Massillon,OH,44646,106500,2012-12-14,40.804243,-81.47165799999999
299,820 THOMAS CIR NE,Massillon,OH,44646,135000,2015-10-13,40.803557,-81.498497
300,238 STATE AVE NE,Massillon,OH,44646,20000,2010-12-09,40.804663,-81.521651
301,3450 CROWN POINT ST NW,Massillon,OH,44646,127000,2014-05-29,40.804697,-81.469185
302,2710 7TH ST NW,Canton,OH,44708,52500,2018-10-01,40.805099,-81.404657
303,504 PERRY DR NW,Canton,OH,44708,86000,2007-01-10,40.804825,-81.44501600000001
304,2020 TIMBERLINE CIR NE,Massillon,OH,44646,151000,2013-07-23,40.804831,-81.495306
305,124 E BOWMAN ST,Wooster,OH,44691,78500,2009-02-12,40.804843,-81.941194
306,449 TROYER CT,Wooster,OH,44691,28000,2016-01-29,40.804425,-81.931063
307,FIRESTONE,Wooster,OH,44691,55100,2013-09-25,40.80516,-81.97792
308,7653 HARRISON RD,Wooster,OH,44691,181980,2018-03-06,40.80516,-81.97792
309,14859 FAIR RD,Wooster,OH,44691,1855000,2012-12-21,40.80516,-81.97792
310,W NORTH ST,Wooster,OH,44691,20000,2006-02-24,40.80516,-81.97792
311,S COLUMBUS AVE,Wooster,OH,44691,2000,2015-02-17,40.80516,-81.97792
312,E HENRY ST,Wooster,OH,44691,45000,2007-05-23,40.80516,-81.97792
313,E LIBERTY ST,Wooster,OH,44691,190000,2006-12-01,40.80516,-81.97792
314,HINER RD,Wooster,OH,44691,128000,2012-09-21,40.80516,-81.97792
315,301 OHIO AVE NE,Massillon,OH,44646,28000,2012-10-15,40.805182,-81.52064399999999
316,S FIRESTONE RD,Wooster,OH,44691,400000,2007-08-09,40.80516,-81.97792
317,623 N BUCKEYE ST,Wooster,OH,44691,62900,2006-04-28,40.805273,-81.939944
318,847 CAMPBELL CIR NE,Massillon,OH,44646,93000,2011-09-30,40.805468,-81.506683
319,E NORTH ST,Wooster,OH,44691,575000,2008-03-26,40.80516,-81.97792
320,857 11TH ST NE,Massillon,OH,44646,91900,2017-07-31,40.805601,-81.511431
321,4309 7TH ST NW,Canton,OH,44708,75000,2018-07-02,40.805628000000006,-81.423362
322,800 HALTER CT NW,Canton,OH,44708,24900,2018-01-22,40.805642999999996,-81.398169
323,FREDERICKSBURG RD,Wooster,OH,44691,150000,2018-12-31,40.80516,-81.97792
324,661 WASHINGTON ST,Wooster,OH,44691,85000,2006-07-31,40.805771,-81.92675899999999
325,1840 STONER AVE NE,Massillon,OH,44646,75000,2012-08-27,40.805774,-81.499502
326,INDUSTRIAL BLVD,Wooster,OH,44691,145000,2007-08-20,40.80516,-81.97792
327,826 MILTON CT NW,Canton,OH,44708,24000,2007-01-04,40.806024,-81.402354
328,816 COLUMBUS AVE NW,Canton,OH,44708,59000,2006-08-29,40.806187,-81.401614
329,738 PARKVIEW DR,Wooster,OH,44691,70000,2018-07-03,40.806365,-81.95171500000001
330,344 ERTLE AVE NE,Massillon,OH,44646,45000,2015-05-15,40.806365,-81.52005799999999
331,701 N BEVER ST,Wooster,OH,44691,78000,2013-08-28,40.80638,-81.938139
332,CALDWELL DR,Wooster,OH,44691,360000,2010-06-07,40.80516,-81.97792
333,709 LINCOLN ST,Wooster,OH,44691,60000,2012-07-24,40.806540999999996,-81.927751
334,870 1ST ST NE,Massillon,OH,44646,88500,2007-06-14,40.806544,-81.523752
335,835 9TH ST NE,Massillon,OH,44646,27000,2009-07-27,40.805254999999995,-81.51463299999999
336,715 MCKINLEY ST,Wooster,OH,44691,80000,2007-03-23,40.806557,-81.925608
337,4704 7TH ST NW,Canton,OH,44708,116750,2005-10-20,40.806093,-81.433643
338,702 NETHERWOOD AVE NW,Canton,OH,44708,171000,2017-01-19,40.806672999999996,-81.447553
339,237 SPRING ST,Wooster,OH,44691,243000,2013-04-25,40.806275,-81.940334
340,838 CLARENDON AVE NW,Canton,OH,44708,12000,2018-05-11,40.806713,-81.403087
341,728 N BEVER ST,Wooster,OH,44691,57000,2015-04-02,40.80672,-81.938501
342,705 N BEVER ST,Wooster,OH,44691,94900,2007-07-18,40.806429,-81.938139
343,726 WASHINGTON ST,Wooster,OH,44691,90000,2016-01-15,40.806670000000004,-81.92711899999999
344,145 PEARL ST,Wooster,OH,44691,57000,2019-01-16,40.807443,-81.939879
345,4008 9TH ST NW,Canton,OH,44708,68000,2005-06-03,40.807611,-81.421025
346,126 PEARL ST,Wooster,OH,44691,94100,2010-06-24,40.807717,-81.93973299999999
347,930 9TH ST NE,Massillon,OH,44646,89000,2013-12-13,40.807769,-81.514115
348,691 NW LEBANON RD,Dalton,OH,44618,100000,2012-07-19,40.806841,-81.668339
349,817 SCOVEL AVE,Wooster,OH,44691,51251,2012-04-17,40.807832,-81.939486
350,2411 10TH ST NW,Canton,OH,44708,20000,2009-08-26,40.807852000000004,-81.400356
351,918 TERRACE AVE NW,Canton,OH,44708,15000,2013-05-14,40.80791,-81.42200600000001
352,10232 WOOSTER ST NW,Massillon,OH,44647,136000,2008-08-06,40.807137,-81.54549899999999
353,946 9TH ST NE,Massillon,OH,44646,45234,2015-02-27,40.808192,-81.514087
354,910 MCKINLEY ST,Wooster,OH,44691,83500,2009-08-31,40.808283,-81.92596
355,1663 BEAUMONT AVE NW,Massillon,OH,44647,19500,2012-08-28,40.808324,-81.55318100000001
356,949 1ST ST NE,Massillon,OH,44646,50500,2008-08-20,40.808448999999996,-81.525087
357,821 NORTHWESTERN AVE,Wooster,OH,44691,148500,2015-06-22,40.808017,-81.9504
358,2433 11TH ST NW,Canton,OH,44708,72700,2005-02-08,40.808640000000004,-81.400625
359,4616 10TH ST NW,Canton,OH,44708,125000,2018-01-11,40.808063,-81.430737
360,140 OHLMAN CT NE,Massillon,OH,44646,21000,2016-12-21,40.808783,-81.524034
361,1115 KENDAL AVE NE,Massillon,OH,44646,108000,2006-02-01,40.808262,-81.510512
362,16205 RUDY RD,Dalton,OH,44618,48000,2011-03-03,40.808825,-81.696248
363,834 NORTHWESTERN AVE,Wooster,OH,44691,102000,2007-07-31,40.808263000000004,-81.950776
364,842 FOREST DR,Wooster,OH,44691,175000,2013-06-27,40.808288,-81.942447
365,2740 LATTASBURG RD,Wooster,OH,44691,124000,2016-08-24,40.808347999999995,-81.98878
366,944 GASCHE ST,Wooster,OH,44691,81000,2017-10-31,40.809096999999994,-81.929629
367,1022 LAKEVIEW AVE NW,Canton,OH,44708,122100,2005-09-30,40.808755,-81.42415799999999
368,868 PARK BLVD,Wooster,OH,44691,224000,2012-12-11,40.808778000000004,-81.94597399999999
369,1125 BROAD AVE NW,Canton,OH,44708,64900,2018-12-26,40.809389,-81.404961
370,1010 8TH ST NE,Massillon,OH,44646,29900,2010-02-24,40.808869,-81.515484
371,5615 SEVERN CIR NW,Canton,OH,44708,223900,2006-02-24,40.808901,-81.453344
372,1022 2ND ST NE,Massillon,OH,44646,98900,2018-12-13,40.809225,-81.522439
373,2409 LAKE ROAD BLVD NW,Canton,OH,44708,7200,2012-04-11,40.809799,-81.400122
374,1212 12TH ST NW,Canton,OH,44703,1164400,2008-01-07,40.809395,-81.38461
375,1779 BEAUMONT AVE NW,Massillon,OH,44647,31000,2007-05-18,40.809906,-81.553095
376,977 MCKINLEY ST,Wooster,OH,44691,95000,2017-11-21,40.809487,-81.925591
377,14TH ST NW,Canton,OH,44703,9000,2010-04-22,40.81003,-81.38134000000001
378,9TH ST NW,Canton,OH,44703,15000,2018-06-29,40.81003,-81.38134000000001
379,1740 CARMONT AVE NW,Massillon,OH,44647,108900,2005-05-12,40.808954,-81.542926
380,907 FOREST DR,Wooster,OH,44691,227000,2011-04-26,40.808974,-81.941998
381,1222 RIDGE RD NW,Canton,OH,44703,76000,2018-06-13,40.810162,-81.389454
382,1033 WASHINGTON ST APT 203,Wooster,OH,44691,69000,2007-03-05,40.8103,-81.92682099999999
383,1478 TYLERS MILL LN NE,Massillon,OH,44646,134000,2017-12-28,40.809751,-81.50510899999999
384,1448 TYLERS MILL LN NE,Massillon,OH,44646,115000,2014-03-14,40.809801,-81.506807
385,6TH ST NW,Canton,OH,44703,3000,2017-12-12,40.81003,-81.38134000000001
386,862 ASHWOOD DR,Wooster,OH,44691,153000,2014-08-08,40.810818,-81.95630600000001
387,1129 1ST ST NE,Massillon,OH,44646,42000,2005-05-06,40.810879,-81.52619
388,1109 2ND ST NE,Massillon,OH,44646,85000,2009-09-11,40.81089,-81.522632
389,606 13TH ST NW,Canton,OH,44703,36000,2008-04-01,40.811095,-81.377486
390,1240 13TH ST NW,Canton,OH,44703,24000,2005-03-14,40.811343,-81.385566
391,332 DELAWARE AVE NE,Massillon,OH,44646,89900,2011-10-27,40.811344,-81.519535
392,1240 LAKEWOOD CT NW,Canton,OH,44708,55000,2006-03-06,40.811452,-81.409409
393,1133 10TH ST NE,Massillon,OH,44646,150000,2016-02-03,40.810823,-81.513513
394,816 MEDILL AVE NE,Massillon,OH,44646,50000,2007-06-20,40.812028999999995,-81.51460300000001
395,945 ASHWOOD DR,Wooster,OH,44691,139900,2006-09-22,40.811065,-81.955162
396,1203 1ST ST NE,Massillon,OH,44646,25000,2017-09-01,40.811578000000004,-81.526376
397,1431 W VALENTINE CIR NW,Canton,OH,44708,86900,2016-05-06,40.812731,-81.40171099999999
398,1365 YALE AVE NW,Canton,OH,44703,38000,2017-12-22,40.812785,-81.375315
399,1350 DUNKEITH DR NW,Canton,OH,44708,88000,2008-10-22,40.812888,-81.436561
400,1343 14TH ST NW,Canton,OH,44703,15500,2017-08-01,40.812948999999996,-81.38685
401,1427 LOUISIANA AVE NW,Canton,OH,44703,20000,2016-10-07,40.813475,-81.38145300000001
402,235 HAYES AVE NE,Massillon,OH,44646,38000,2015-05-14,40.813639,-81.522444
403,1310 PERRY DR NW,Canton,OH,44708,150000,2015-06-01,40.812995,-81.448959
404,1315 2ND ST NE,Massillon,OH,44646,126900,2014-08-11,40.812009,-81.52194399999999
405,1385 CASCADE CIR W # 2-1,Canton,OH,44708,204900,2018-06-22,40.81335,-81.414753
406,1320 15TH ST NW,Canton,OH,44703,59900,2014-09-03,40.813999,-81.38646
407,11592 WOOSTER ST NW,Massillon,OH,44647,3500,2010-08-11,40.813611,-81.57043900000001
408,1405 WHIPPLE AVE NW,Canton,OH,44708,940500,2018-06-04,40.813752,-81.42548199999999
409,10216 DOVER RD,Apple Creek,OH,44606,126000,2006-03-16,40.724657,-81.784803
410,10532 DOVER RD,Apple Creek,OH,44606,57000,2009-02-27,40.726262,-81.789608
411,7562 BUSS RD,Apple Creek,OH,44606,85000,2008-09-15,40.726415,-81.8381
412,7970 BUSS RD,Apple Creek,OH,44606,76245,2008-01-08,40.726451000000004,-81.831125
413,5837 MILLERSBURG RD,Wooster,OH,44691,135000,2009-03-31,40.727722,-81.941633
414,5455 OBERLY DR,Apple Creek,OH,44606,35000,2007-11-01,40.734738,-81.808689
415,8575 EMERSON RD,Apple Creek,OH,44606,124000,2015-02-04,40.740831,-81.821461
416,10043 EMERSON RD,Apple Creek,OH,44606,163000,2018-09-20,40.740840000000006,-81.811424
417,31 SHANNON DR,Apple Creek,OH,44606,25000,2015-11-17,40.744258,-81.826051
418,12990 EMERSON RD,Apple Creek,OH,44606,170000,2018-11-09,40.741347,-81.748187
419,4767 S CARR RD,Apple Creek,OH,44606,230000,2017-02-06,40.742296,-81.815009
420,294 APPLE RIDGE DR,Apple Creek,OH,44606,114900,2013-08-16,40.746385,-81.82638299999999
421,5100 FREDERICKSBURG RD,Wooster,OH,44691,50000,2011-01-10,40.747820000000004,-81.895741
422,72 APPLE RIDGE DR,Apple Creek,OH,44606,168000,2017-07-07,40.744693,-81.829369
423,6249 KISTER RD,Wooster,OH,44691,170000,2006-08-25,40.745429,-82.047354
424,49 MAPLE ST,Apple Creek,OH,44606,50000,2012-09-13,40.749279,-81.834458
425,273 WOODBURY CIR,Dalton,OH,44618,173900,2016-08-31,40.747501,-81.742633
426,4140 PHEASANT RUN,Wooster,OH,44691,329000,2017-05-02,40.748534,-81.96708000000001
427,3940 BATDORF RD,Wooster,OH,44691,303000,2014-03-13,40.748813,-81.963095
428,97 DOGWOOD CIR,Apple Creek,OH,44606,68000,2014-11-07,40.751543,-81.832278
429,3720 FREDERICKSBURG RD,Wooster,OH,44691,30000,2016-11-22,40.751563,-81.895702
430,4125 MALLARD WAY,Wooster,OH,44691,224000,2013-11-18,40.749367,-81.969082
431,5315 DOVER RD,Apple Creek,OH,44606,200000,2017-05-26,40.749682,-81.85283100000001
432,4194 BATDORF RD,Wooster,OH,44691,303000,2014-03-13,40.751823,-81.963027
433,3810 BATDORF RD,Wooster,OH,44691,72000,2008-08-22,40.754883,-81.962942
434,3727 COLUMBUS RD,Wooster,OH,44691,105000,2008-05-19,40.754083,-82.000074
435,54 DOGWOOD CIR,Apple Creek,OH,44606,139000,2015-11-17,40.75178,-81.831811
436,3750 ALABAMA AVE SW,Navarre,OH,44662,60000,2008-04-08,40.758265,-81.633321
437,3676 ALABAMA AVE SW,Dalton,OH,44618,21500,2010-07-13,40.759214,-81.633284
438,3251 CARMONT AVE SW,Massillon,OH,44647,15000,2015-11-25,40.762209999999996,-81.546362
439,3021 COLUMBUS RD,Wooster,OH,44691,73000,2014-10-30,40.762783,-81.985282
440,2696 S CARR RD,Apple Creek,OH,44606,200000,2012-01-11,40.762334,-81.794067
441,2799 SHREVE RD,Wooster,OH,44691,70500,2012-08-16,40.766242,-81.972891
442,2501 EARL ST,Wooster,OH,44691,88000,2006-02-01,40.766953,-81.961841
443,2363 S FUNK RD,Wooster,OH,44691,143000,2009-04-16,40.765266,-82.117447
444,2432 OIL CITY RD,Wooster,OH,44691,100000,2012-08-31,40.767947,-81.90512199999999
445,3376 BLACHLEYVILLE RD,Wooster,OH,44691,15000,2006-02-16,40.767981,-82.01388399999999
446,2050 CYPRUS DR SE,Massillon,OH,44646,234000,2017-08-04,40.7691,-81.494326
447,2036 S KANSAS RD,Orrville,OH,44667,20000,2007-06-15,40.771327,-81.774999
448,N SCHULTZ AVE,Dalton,OH,44618,295000,2005-11-18,40.771809999999995,-81.68914000000001
449,E SCHULTZ AVE,Dalton,OH,44618,89200,2007-05-10,40.771809999999995,-81.68914000000001
450,2027 UNIVERSITY COMMONS DR SE,Massillon,OH,44646,170000,2019-04-18,40.773334000000006,-81.488256
451,1977 UNIVERSITY COMMONS DR SE,Massillon,OH,44646,133900,2005-06-02,40.773468,-81.488169
452,2083 UNIVERSITY COMMONS DR SE,Massillon,OH,44646,137900,2008-07-09,40.77215,-81.488405
453,2425 BLACHLEYVILLE RD,Wooster,OH,44691,535000,2018-09-28,40.77262,-81.997417
454,2360 MORTON RD SW,Massillon,OH,44647,45000,2009-10-02,40.775052,-81.548762
455,2040 AUGUSTA DR SE,Massillon,OH,44646,295000,2011-06-27,40.773459,-81.497151
456,1975 CASE WESTERN DR SE,Massillon,OH,44646,170000,2011-02-08,40.774368,-81.492805
457,7355 MILLER ST,Apple Creek,OH,44606,93000,2007-07-12,40.776257,-81.841674
458,1855 BLOOMING HILLS PL SE,Massillon,OH,44646,129900,2017-02-28,40.775828000000004,-81.509227
459,4331 ELY RD,Wooster,OH,44691,231000,2017-10-03,40.777078,-81.884056
460,6186 ELY RD,Wooster,OH,44691,40000,2014-06-23,40.777262,-81.869606
461,660 GIFFEN DR,Wooster,OH,44691,82000,2017-10-05,40.777653,-81.932536
462,54 CHESTER AVE SE,Massillon,OH,44646,13800,2017-10-25,40.77779,-81.51315
463,5857 ELY RD,Wooster,OH,44691,220000,2015-07-20,40.776959999999995,-81.865372
464,1740 BARNES DR,Wooster,OH,44691,13000,2008-04-11,40.777943,-81.96100600000001
465,5930 ELY RD,Wooster,OH,44691,137500,2017-10-03,40.777237,-81.866321
466,1101 WOODLAND AVE SE,Massillon,OH,44646,59900,2005-12-30,40.779168,-81.511135
467,1992 TRIPLE CROWN CIR SE,Massillon,OH,44646,185000,2017-07-03,40.778887,-81.49809300000001
468,1250 BLACHLEYVILLE RD,Wooster,OH,44691,120000,2006-08-31,40.779463,-81.968409
469,1565 GIBSON AVE SE,Massillon,OH,44646,90000,2014-03-25,40.780907,-81.507235
470,1518 ALMOND PL SE,Massillon,OH,44646,148900,2012-04-02,40.779723,-81.514627
471,1710 OBERLIN AVE SW,Massillon,OH,44647,175000,2006-10-20,40.780097,-81.545402
472,1310 ARAPAHOE RD SE,Massillon,OH,44646,17000,2013-11-21,40.781448,-81.503547
473,1560 S FUNK RD,Wooster,OH,44691,124000,2005-02-10,40.781461,-82.117238
474,1414 STARDALE AVE SW,Massillon,OH,44646,105000,2005-05-20,40.780488,-81.48140500000001
475,1486 MOWRER ST,Wooster,OH,44691,110000,2014-11-12,40.780635,-81.95683299999999
476,1057 BLACHLEYVILLE RD,Wooster,OH,44691,103500,2011-04-15,40.780742,-81.96376500000001
477,1710 OSAGE AVE SE,Massillon,OH,44646,10000,2015-06-01,40.781732,-81.503313
478,1327 3RD ST SE,Massillon,OH,44646,35000,2016-08-05,40.78175,-81.510971
479,1395 KELLY ST SW,Massillon,OH,44647,35900,2007-03-21,40.781971,-81.555436
480,1303 13TH ST SE,Massillon,OH,44646,13500,2013-06-06,40.782038,-81.509534
481,719 NEALE AVE SW,Massillon,OH,44647,12000,2017-03-29,40.782656,-81.529137
482,2103 ALABAMA AVE SW,Dalton,OH,44618,118500,2018-06-15,40.781655,-81.632536
483,1360 KELLY ST SW,Massillon,OH,44647,180200,2014-05-02,40.781284,-81.555122
484,2925 SOUTHWAY ST SW,Massillon,OH,44646,25000,2010-09-30,40.783046,-81.48048399999999
485,1954 MANCHESTER AVE SW,North Lawrence,OH,44666,131871,2011-10-07,40.782657,-81.603166
486,1255 PATRIOT PL SW,Massillon,OH,44647,101000,2010-07-06,40.782876,-81.531269
487,1212 20TH ST SW,Massillon,OH,44647,146500,2006-10-13,40.782936,-81.547531
488,997 CLEVELAND ST SW,Massillon,OH,44647,67400,2011-10-14,40.784315,-81.523259
489,1116 15TH ST SW,Massillon,OH,44647,85000,2010-10-06,40.784527000000004,-81.541596
490,1030 ERIE ST S,Massillon,OH,44646,5000,2018-08-15,40.78457,-81.51711
491,1201 MEADOWBROOK RD SW,Massillon,OH,44647,114000,2015-07-31,40.783906,-81.54638
492,6150 SECREST RD,Wooster,OH,44691,199900,2018-10-30,40.784621,-81.858535
493,13376 ARNOLD RD,Dalton,OH,44618,409000,2016-03-23,40.783934,-81.73885200000001
494,1620 CEDARCREST AVE SW,Massillon,OH,44646,101900,2014-05-30,40.784146,-81.45203000000001
495,3726 CLARK ST SW,Massillon,OH,44646,133500,2012-05-17,40.784168,-81.463605
496,6245 SECREST RD,Wooster,OH,44691,247000,2016-08-01,40.784319,-81.86012099999999
497,1023 13TH ST SE,Massillon,OH,44646,49900,2016-09-07,40.785615,-81.509342
498,2828 SECREST RD,Wooster,OH,44691,165000,2014-02-21,40.784637,-81.908752
499,1018 22ND ST SW,Massillon,OH,44647,112000,2014-05-09,40.785553,-81.550336
500,1019 22ND ST SW,Massillon,OH,44647,106500,2014-02-12,40.785576,-81.550697
501,821 8TH ST SW,Massillon,OH,44647,79200,2006-06-02,40.786771,-81.530387
502,996 WENGER RD S,Dalton,OH,44618,128000,2018-05-08,40.786181,-81.706884
503,2742 TUCKAHOE RD,Wooster,OH,44691,203000,2018-05-30,40.786313,-81.911992
504,906 13TH ST SE,Massillon,OH,44646,35500,2017-09-25,40.787062,-81.508889
505,1428 WALNUT RD SE,Massillon,OH,44646,13100,2019-01-31,40.78725,-81.50738
506,2011 TREMONT AVE SW,Massillon,OH,44647,17500,2011-07-21,40.787517,-81.548156
507,4859 ARBOR RD SW,Canton,OH,44710,48700,2017-09-01,40.787557,-81.438642
508,613 ROBINSON RD,Wooster,OH,44691,87000,2008-03-10,40.787687,-81.9326
509,1330 WALNUT RD SE,Massillon,OH,44646,17500,2019-02-19,40.787695,-81.508567
510,1117 TOWNSVIEW PL,Wooster,OH,44691,52000,2014-06-27,40.787788,-81.92761899999999
511,1781 DEERFIELD AVE S,Dalton,OH,44618,154850,2018-12-26,40.787017,-81.648411
512,200 DEERFORD ST NW,Massillon,OH,44647,375000,2018-08-01,40.787135,-81.57360600000001
513,81 26TH ST NW,Massillon,OH,44647,64000,2015-08-21,40.788179,-81.556138
514,879 STARR RIDGE ST SE,Massillon,OH,44646,150000,2014-12-22,40.787264,-81.484698
515,731 14TH ST SE,Massillon,OH,44646,7500,2019-01-10,40.788447,-81.507768
516,1143 TOWNSVIEW PL,Wooster,OH,44691,53000,2012-12-12,40.788522,-81.926419
517,302 15TH ST SW,Massillon,OH,44647,60000,2008-07-24,40.788761,-81.541169
518,5247 14TH ST SW,Canton,OH,44710,99900,2009-09-11,40.78882,-81.450254
519,1136 GREEN AVE SW,Massillon,OH,44647,30000,2008-08-01,40.788952,-81.536419
520,335 12TH ST SW,Massillon,OH,44647,27200,2013-01-22,40.788975,-81.537296
521,55 21ST ST NW,Massillon,OH,44647,13000,2009-04-10,40.789169,-81.548874
522,1312 DELAWARE AVE SW,Canton,OH,44710,99000,2018-12-13,40.789289000000004,-81.445004
523,704 PINE HILLS DR SW,Massillon,OH,44646,159900,2017-09-05,40.788672999999996,-81.4807
524,936 GREEN AVE SW,Massillon,OH,44647,23000,2005-12-05,40.789432,-81.53491899999999
525,5121 13TH ST SW,Canton,OH,44710,26700,2018-09-21,40.78962,-81.446639
526,1226 ELLWOOD AVE SW,Canton,OH,44710,105000,2018-05-07,40.789904,-81.431989
527,1394 HIGHLANDER ST SW,Massillon,OH,44647,124900,2012-12-17,40.789365000000004,-81.581417
528,5142 13TH ST SW,Canton,OH,44710,111000,2006-08-23,40.789383,-81.447684
529,131 COUNTRYVIEW AVE,Dalton,OH,44618,175000,2011-06-29,40.789390000000004,-81.694128
530,2842 GRAY RIDGE AVE SE,Massillon,OH,44646,238400,2013-07-23,40.789608,-81.483416
531,1215 FAIRLANE AVE SW,Canton,OH,44710,89500,2016-01-19,40.790256,-81.429664
532,935 CLYDE CT SW,Massillon,OH,44647,36000,2009-10-13,40.79035,-81.535216
533,166 COUNTRYVIEW AVE,Dalton,OH,44618,284900,2006-11-13,40.789644,-81.695406
534,2855 TURNING LEAF AVE NW,Massillon,OH,44647,182500,2005-06-10,40.79018,-81.560926
535,5120 12TH ST SW,Canton,OH,44710,90000,2016-06-17,40.791012,-81.447012
536,817 DIELHENN AVE SE,Massillon,OH,44646,5000,2015-01-06,40.791074,-81.513482
537,725 SPRUCE ST,Wooster,OH,44691,46000,2015-04-14,40.791258,-81.940076
538,1203 MILES AVE SW,Canton,OH,44710,120000,2017-10-13,40.790758000000004,-81.433595
539,531 PROUDLEY AVE SW,Massillon,OH,44646,107000,2015-03-20,40.790888,-81.471739
540,744 S APPLE CREEK RD,Apple Creek,OH,44606,100000,2014-05-14,40.791519,-81.843801
541,323 SCHROCK PL SW,Massillon,OH,44647,24000,2010-06-29,40.791596000000006,-81.530558
542,625 SPRUCE ST,Wooster,OH,44691,55000,2018-09-28,40.791686,-81.93989499999999
543,505 KAYLYNN ST SE,Massillon,OH,44646,99000,2005-09-14,40.791756,-81.489851
544,30 12TH ST SW,Massillon,OH,44647,47000,2007-07-11,40.791809,-81.538404
545,1122 ROCKWOOD AVE SW,Canton,OH,44710,79900,2017-06-16,40.792041,-81.424374
546,2526 DUANE AVE NW,Massillon,OH,44647,90000,2018-11-19,40.792357,-81.55612099999999
547,1114 WHIPPLE AVE SW,Canton,OH,44710,111000,2016-01-28,40.791643,-81.426411
548,134 PERSHING AVE NW,Massillon,OH,44646,77000,2016-11-03,40.792553999999996,-81.451401
549,618 TREMONT AVE SW,Massillon,OH,44647,22500,2013-01-03,40.792652000000004,-81.530169
550,428 ERIE ST S,Massillon,OH,44646,170800,2006-03-23,40.792119,-81.520822
551,204 FAIRLAWN AVE SW,Massillon,OH,44646,67200,2014-06-11,40.792767,-81.461139
552,1318 AUBURN AVE NW,Massillon,OH,44647,32500,2017-01-04,40.79286,-81.541437
553,213 LENNOX AVE SW,Massillon,OH,44646,24500,2014-04-14,40.792976,-81.472441
554,502 3RD ST SE,Massillon,OH,44646,12500,2019-02-01,40.793057,-81.516876
555,649 WABASH AVE SW,Massillon,OH,44647,17600,2010-08-16,40.793172,-81.531859
556,2514 SCHULER AVE NW,Massillon,OH,44647,33000,2011-07-25,40.793201,-81.554847
557,503 FREEDLANDER RD,Wooster,OH,44691,260000,2011-11-29,40.792811,-81.93310600000001
558,4307 DUPONT ST NW,Massillon,OH,44646,72500,2017-06-06,40.793833,-81.453968
559,739 FAIRLANE AVE SW,Canton,OH,44710,65000,2017-03-03,40.793856,-81.42948299999999
560,436 27TH ST NW,Massillon,OH,44647,24000,2015-12-30,40.794004,-81.557535
561,291 MILL ST S,Dalton,OH,44618,125000,2018-10-01,40.793572999999995,-81.694035
562,303 12TH ST NW,Massillon,OH,44647,51900,2009-01-12,40.794259999999994,-81.538811
563,3116 LYNCH ST SW,Massillon,OH,44646,36030,2016-01-15,40.794336,-81.477071
564,327 8TH ST SE,Massillon,OH,44646,89900,2018-12-14,40.7944,-81.514404
565,1644 SYLVAN RD,Wooster,OH,44691,284479,2006-03-31,40.794121000000004,-81.918122
566,726 MANOR AVE SW,Canton,OH,44710,120000,2007-07-13,40.794165,-81.430479
567,LINCOLN WAY E,Massillon,OH,44647,24000,2016-06-06,40.794509999999995,-81.56658
568,HOUSTON PL SW,Massillon,OH,44647,1500,2019-04-17,40.794509999999995,-81.56658
569,RIVERSIDE AVE NW,Massillon,OH,44647,46200,2012-05-31,40.794509999999995,-81.56658
570,343 S WALNUT ST,Wooster,OH,44691,20000,2012-12-26,40.794515999999994,-81.940816
571,1336 LINCOLN WAY NW,Massillon,OH,44647,17700,2014-02-26,40.794571999999995,-81.54147900000001
572,440 26TH ST NW,Massillon,OH,44647,79800,2007-11-20,40.794657,-81.55558
573,1235 OAK AVE SE,Massillon,OH,44646,35000,2013-12-12,40.794662,-81.50921
574,AUBURN AVE NW,Massillon,OH,44647,109900,2015-06-25,40.794509999999995,-81.56658
575,HIGH MILL AVE NW,Massillon,OH,44647,108000,2015-12-18,40.794509999999995,-81.56658
576,825 OAK AVE SE,Massillon,OH,44646,17000,2018-02-08,40.794967,-81.512712
577,HIGHLANDER AVE SW,Massillon,OH,44647,140000,2015-02-20,40.794509999999995,-81.56658
578,308 12TH ST NW,Massillon,OH,44647,21500,2008-09-18,40.795102,-81.538426
579,164 27TH ST SE,Massillon,OH,44646,45900,2016-03-18,40.795144,-81.484432
580,364 CARDINAL ST,Apple Creek,OH,44606,105000,2012-02-29,40.794522,-81.836951
581,843 BLUFF ST SE,Massillon,OH,44646,17500,2012-02-22,40.795212,-81.511859
582,212 BELLE AVE NW # 110,Massillon,OH,44646,47000,2019-02-28,40.79537,-81.462987
583,916 E HENRY ST,Wooster,OH,44691,3000,2017-11-14,40.79557,-81.92711700000001
584,228 S WALNUT ST,Wooster,OH,44691,44000,2006-02-17,40.795604,-81.940741
585,2707 LINCOLN WAY NW,Massillon,OH,44647,42500,2018-01-31,40.795614,-81.557647
586,137 ELIZABETH AVE SW,Massillon,OH,44646,32000,2013-10-11,40.795734,-81.48380999999999
587,137 ELIZABETH AVE SW,Massillon,OH,44646,32000,2013-10-11,40.795734,-81.48380999999999
588,3701 E LINCOLN WAY,Wooster,OH,44691,60000,2013-04-30,40.79575,-81.894255
589,76 S HONEYTOWN RD,Wooster,OH,44691,77500,2010-11-05,40.795827,-81.876772
590,125 BERNOWER AVE SW,Massillon,OH,44646,59900,2013-02-08,40.7959,-81.482321
591,643 HANCOCK ST,Wooster,OH,44691,21000,2010-05-26,40.795912,-81.931275
592,1071 MANCHESTER AVE SW,North Lawrence,OH,44666,52000,2015-03-10,40.796067,-81.60405
593,3258 LINCOLN WAY NW,Massillon,OH,44647,87000,2015-10-19,40.796147999999995,-81.572687
594,9380 LINCOLN WAY E,Orrville,OH,44667,326000,2007-03-01,40.795666,-81.80805699999999
595,1060 CAMPBELL AVE,Wooster,OH,44691,10000,2017-10-20,40.796482,-81.92624
596,231 S MARKET ST,Wooster,OH,44691,160000,2010-11-01,40.795846999999995,-81.93951
597,523 E HENRY ST,Wooster,OH,44691,17500,2006-08-02,40.796535,-81.933364
598,911 32ND ST NW,Massillon,OH,44647,38500,2013-12-17,40.796707,-81.571148
599,213 KOLPWOOD AVE NW,Massillon,OH,44646,37000,2015-12-31,40.796832,-81.479466
600,215 21ST ST SE,Massillon,OH,44646,150000,2016-06-23,40.796253,-81.494773
601,152 MOUNT MARIE AVE NW,Canton,OH,44708,27900,2016-01-28,40.797033,-81.43810699999999
602,310 STEWART AVE NW,Massillon,OH,44646,119000,2019-05-13,40.796510999999995,-81.457538
603,3063 BAYER CIR NW,Massillon,OH,44646,51700,2014-02-04,40.797278999999996,-81.476834
604,4561 TUSCARAWAS ST W,Canton,OH,44708,279500,2006-11-22,40.795957,-81.43029399999999
605,5101 SUMMITVIEW CIR NW,Canton,OH,44708,207000,2015-07-01,40.797373,-81.446391
606,7545 E LINCOLN WAY,Apple Creek,OH,44606,150000,2016-03-03,40.796865999999994,-81.838623
607,4658 MARCELLUS ST NW,Canton,OH,44708,90000,2007-03-13,40.797558,-81.433255
608,1809 VERMONT AVE SE,Massillon,OH,44646,56000,2019-03-27,40.797584,-81.50167900000001
609,4875 AURORA ST NW,Canton,OH,44708,153000,2018-09-14,40.797332,-81.439083
610,4941 AURORA ST NW,Canton,OH,44708,144000,2006-12-08,40.797394,-81.441035
611,134 SHORE LINE AVE NW,Canton,OH,44708,213800,2005-05-19,40.796742,-81.44810600000001
612,146 WOODLAWN AVE NW,Canton,OH,44708,115000,2016-09-26,40.797509999999996,-81.435869
613,147 MILES AVE NW,Canton,OH,44708,75000,2010-10-22,40.797787,-81.43437800000001
614,3103 BAILEY ST NW,Massillon,OH,44646,69500,2007-09-11,40.79788,-81.477086
615,441 LINWAY AVE NW,Massillon,OH,44646,60100,2015-06-23,40.7982,-81.464458
616,521 CARVER ST NW,Massillon,OH,44647,34000,2015-10-29,40.798257,-81.54786800000001
617,642 WASHINGTON ST NW,Massillon,OH,44647,181000,2017-06-13,40.797918,-81.562748
618,6815 E LINCOLN WAY,Wooster,OH,44691,900000,2015-03-12,40.797967,-81.850337
619,7746 ICKES RD,Wooster,OH,44691,83500,2006-11-30,40.798373,-82.07141899999999
620,137 BELLFLOWER AVE NW,Canton,OH,44708,73000,2014-05-06,40.798452000000005,-81.41338499999999
621,170 PERRY DR NW,Canton,OH,44708,99000,2015-02-23,40.7985,-81.445409
622,5191 ANGLING RD,Wooster,OH,44691,74900,2018-01-24,40.798536999999996,-82.023218
623,13464 LINCOLN ST,North Lawrence,OH,44666,15000,2016-03-03,40.798576000000004,-81.607789
624,424 W NORTH ST,Wooster,OH,44691,42900,2011-01-24,40.798607000000004,-81.946461
625,44 10TH ST SE,Massillon,OH,44646,27000,2018-02-28,40.79861,-81.511286
626,516 W NORTH ST,Wooster,OH,44691,35000,2013-02-22,40.798623,-81.948451
627,201 E LIBERTY ST,Wooster,OH,44691,627500,2016-02-29,40.798284,-81.938303
628,551 23RD ST NW,Massillon,OH,44647,98500,2006-04-13,40.798709,-81.551172
629,1014 HIGHLANDER ST NW,Massillon,OH,44647,36000,2011-11-10,40.79886,-81.576555
630,512 E MAIN ST,Dalton,OH,44618,122400,2016-12-30,40.798381,-81.685862
631,2870 LEE AVE NW,Massillon,OH,44647,24900,2017-07-06,40.798913,-81.562555
632,28 N CHURCH ST,Dalton,OH,44618,78000,2018-10-31,40.798955,-81.698861
633,156 E LIBERTY ST,Wooster,OH,44691,1000000,2011-01-18,40.798522999999996,-81.93858900000001
634,15 MILL ST N,Dalton,OH,44618,90000,2008-09-30,40.799294,-81.695101
635,512 GENOA AVE NW,Massillon,OH,44646,105000,2018-08-20,40.799136,-81.46463100000001
636,115 SPINK ST,Wooster,OH,44691,29750,2007-07-25,40.799566999999996,-81.931937
637,444 W LARWILL ST,Wooster,OH,44691,17500,2016-12-01,40.799576,-81.946013
638,223 LINWOOD AVE NW,Canton,OH,44708,43000,2014-06-06,40.799729,-81.414558
639,421 S FIRESTONE RD,Wooster,OH,44691,92500,2005-09-06,40.799751,-82.066576
640,151 FAWCETT CT NW,Canton,OH,44708,55000,2016-09-01,40.799802,-81.409275
641,15385 OLD LINCOLN WAY,Dalton,OH,44618,107500,2013-06-10,40.799406,-81.710782
642,630 SAYBOLT AVE,Wooster,OH,44691,39000,2009-05-22,40.800281,-81.950538
643,141 COLUMBUS AVE NW,Canton,OH,44708,32000,2018-08-03,40.800365,-81.402749
644,4984 2ND ST NW,Canton,OH,44708,70000,2018-11-05,40.800371000000005,-81.442396
645,1146 KENYON AVE NW,Massillon,OH,44647,74000,2016-05-25,40.800534999999996,-81.58250600000001
646,233 19TH ST NE,Massillon,OH,44646,82900,2011-12-15,40.800602000000005,-81.499851
647,207 W LARWILL ST,Wooster,OH,44691,120000,2007-03-15,40.80024,-81.943653
648,315 4TH ST NE,Massillon,OH,44646,104900,2019-01-16,40.800249,-81.51939399999999
649,2614 SUNDALE ST NW,Massillon,OH,44646,85000,2015-03-20,40.800738,-81.486234
650,243 E LARWILL ST,Wooster,OH,44691,64000,2007-07-09,40.800846,-81.937802
651,2916 3RD ST NW,Canton,OH,44708,65000,2005-03-16,40.800940999999995,-81.406981
652,523 DELFORD AVE NW,Massillon,OH,44646,135000,2018-07-16,40.800216999999996,-81.463611
653,5102 SEAVIEW CIR NW,Canton,OH,44708,167000,2007-10-01,40.800641999999996,-81.446374
654,313 ROSLYN AVE NW,Canton,OH,44708,60030,2018-09-28,40.801277,-81.412204
655,559 HIGH ST,Wooster,OH,44691,45000,2005-02-04,40.801307,-81.932833
656,40 CHERRY RD NW,Massillon,OH,44646,229000,2018-05-17,40.80077,-81.52648
657,551 TIONESTA DR,Dalton,OH,44618,148500,2013-06-14,40.800773,-81.70479
658,314 CLARENDON AVE NW,Canton,OH,44708,25000,2005-03-07,40.80138,-81.403449
659,427 EMERICK ST,Wooster,OH,44691,82500,2015-07-21,40.80141,-81.945178
660,312 ARLINGTON AVE NW,Canton,OH,44708,11000,2017-06-26,40.801459,-81.40038100000001
661,530 HIGH ST,Wooster,OH,44691,89000,2011-01-25,40.801578000000006,-81.932182
662,4135 3RD ST NW,Canton,OH,44708,90000,2016-08-31,40.801596,-81.422923
663,5107 SEAVIEW CIR NW,Canton,OH,44708,170000,2006-10-31,40.800893,-81.446202
664,418 N WALNUT ST,Wooster,OH,44691,95000,2007-03-12,40.801707,-81.942711
665,635 GENOA AVE NW,Massillon,OH,44646,89900,2007-08-30,40.801744,-81.464916
666,1615 LINCOLN WAY E,Massillon,OH,44646,281000,2018-05-25,40.800584,-81.503952
667,616 WINDAMERE AVE NW,Massillon,OH,44646,54100,2015-09-25,40.801797,-81.460414
668,13338 FAIRLAND ST NW,Massillon,OH,44647,203000,2018-05-25,40.801308,-81.6045
669,3209 RUSS RANCH ST NW,Massillon,OH,44646,81000,2009-05-13,40.801885,-81.474335
670,259 MOHAWK AVE NW,Canton,OH,44708,122000,2018-05-10,40.801553000000006,-81.44185999999999
671,347 SMITH AVE NW,Canton,OH,44708,37500,2008-12-05,40.802002,-81.39949200000001
672,445 N WALNUT ST,Wooster,OH,44691,85000,2015-07-22,40.802027,-81.942427
673,435 N GRANT ST,Wooster,OH,44691,53000,2007-08-23,40.802065999999996,-81.943839
674,11325 SHAEFER ST NW,Massillon,OH,44647,8000,2012-09-11,40.802096999999996,-81.566801
675,523 MCGUIRE ST,Wooster,OH,44691,86000,2010-05-03,40.802333000000004,-81.948559
676,4865 3RD ST NW,Canton,OH,44708,94900,2011-12-01,40.802376,-81.438227
677,422 N BUCKEYE ST,Wooster,OH,44691,94400,2012-12-04,40.802416,-81.939561
678,17 CHERRY RD NE,Massillon,OH,44646,250000,2018-01-04,40.801116,-81.524424
679,427 NOLD AVE,Wooster,OH,44691,100000,2008-04-08,40.802455,-81.935364
680,4109 VALLEY DR NW,Canton,OH,44708,70000,2008-01-23,40.802479999999996,-81.421977
681,2433 4TH ST NW,Canton,OH,44708,12500,2011-11-02,40.802718,-81.401522
682,125 BRIARWOOD DR,Dalton,OH,44618,225000,2018-09-19,40.801958,-81.703886
683,319 MOHAWK AVE NW,Canton,OH,44708,38700,2016-09-23,40.802832,-81.441776
684,404 BROAD AVE NW,Canton,OH,44708,18000,2012-01-11,40.802862,-81.405019
685,700 MARION AVE NW,Massillon,OH,44646,113500,2015-10-05,40.802021,-81.474319
686,442 11TH ST NE,Massillon,OH,44646,29900,2016-04-20,40.803022,-81.51123299999999
687,412 SPINK ST,Wooster,OH,44691,62000,2013-05-15,40.803061,-81.93225100000001
688,705 ERIE ST N,Massillon,OH,44646,46000,2008-05-02,40.803124,-81.525738
689,534 N GRANT ST,Wooster,OH,44691,42500,2005-05-24,40.80314,-81.944176
690,610 KOLPWOOD AVE NW,Massillon,OH,44646,132000,2005-04-28,40.80177,-81.478607
691,407 VALLEYVIEW AVE NW,Canton,OH,44708,75000,2016-06-17,40.803337,-81.42205799999999
692,769 WESTERN DR,Wooster,OH,44691,95000,2016-09-15,40.803441,-81.952669
693,724 DANNER ST NE,Massillon,OH,44646,52550,2009-06-10,40.803612,-81.518109
694,552 MCDONALD ST,Wooster,OH,44691,5500,2016-02-29,40.803614,-81.947748
695,516 SMITH AVE NW,Canton,OH,44708,7500,2006-05-15,40.803622999999995,-81.39885
696,569 N GRANT ST,Wooster,OH,44691,40000,2011-02-23,40.803779999999996,-81.94380600000001
697,520 POPLAR AVE NW,Canton,OH,44708,210000,2018-01-16,40.803779999999996,-81.420346
698,657 TANYA AVE NW,Massillon,OH,44646,135000,2017-03-08,40.803187,-81.481287
699,561 WOODLAND AVE,Wooster,OH,44691,43240,2006-07-21,40.803881,-81.948642
700,740 DANNER ST NE,Massillon,OH,44646,35200,2014-03-06,40.803893,-81.51804200000001
701,3416 BIRCHDALE RD NW,Canton,OH,44708,55000,2010-12-23,40.80393,-81.413561
702,738 TANYA AVE NW,Massillon,OH,44646,100000,2016-11-28,40.803952,-81.480874
703,2326 WAGON TRAIL ST NE,Massillon,OH,44646,194000,2018-08-10,40.803971000000004,-81.49069
704,509 VALLEYVIEW AVE NW,Canton,OH,44708,78000,2015-03-06,40.803994,-81.42201700000001
705,430 AULTMAN AVE NW,Canton,OH,44708,115000,2016-12-27,40.80345,-81.419055
706,565 OAK HILL RD,Wooster,OH,44691,55000,2007-12-28,40.804123,-81.95348299999999
707,331 EDGEWOOD DR,Dalton,OH,44618,35000,2008-12-10,40.804142999999996,-81.703399
708,554 N BUCKEYE ST,Wooster,OH,44691,69500,2006-03-31,40.804196000000005,-81.94002900000001
709,410 MANOR AVE NW,Canton,OH,44708,109000,2015-12-15,40.803712,-81.429959
710,2430 6TH ST NW,Canton,OH,44708,35000,2016-04-29,40.804278000000004,-81.400875
711,5117 4TH ST NW,Canton,OH,44708,57800,2015-10-28,40.804285,-81.445654
712,2906 VERA PL NW,Canton,OH,44708,40000,2009-02-04,40.804425,-81.406396
713,2815 VERA PL NW,Canton,OH,44708,19500,2007-10-10,40.804465,-81.40550400000001
714,731 27TH ST NE,Massillon,OH,44646,182500,2019-04-26,40.803244,-81.484371
715,2311 6TH ST NW,Canton,OH,44708,26900,2006-07-17,40.804520000000004,-81.399632
716,558 N MARKET ST,Wooster,OH,44691,339000,2015-07-29,40.803934000000005,-81.941641
717,825 E BOWMAN ST,Wooster,OH,44691,58000,2017-03-07,40.804788,-81.92912199999999
718,818 FRANKLIN RD NE,Massillon,OH,44646,64000,2008-05-09,40.804789,-81.500786
719,2549 DOGWOOD DR NE,Massillon,OH,44646,173500,2008-05-08,40.804113,-81.486641
720,619 BROAD AVE NW,Canton,OH,44708,54000,2008-02-06,40.804821000000004,-81.405259
721,502 MANOR AVE NW,Canton,OH,44708,87500,2013-08-16,40.804821999999994,-81.43028199999999
722,346 E BOWMAN ST,Wooster,OH,44691,100000,2018-03-19,40.804978999999996,-81.937212
723,836 15TH ST NW,Massillon,OH,44647,59000,2016-10-11,40.805054,-81.54223
724,861 MILBURN RD NE,Massillon,OH,44646,132000,2016-06-21,40.804565999999994,-81.498897
725,500 OVERDALE AVE NW,Canton,OH,44708,170000,2015-07-13,40.804666,-81.43730699999999
726,THOMEN CT,Wooster,OH,44691,47000,2005-01-13,40.80516,-81.97792
727,647 E BOWMAN ST,Wooster,OH,44691,150000,2011-08-01,40.804813,-81.931021
728,LIBERTY ST,Wooster,OH,44691,45000,2006-12-22,40.80516,-81.97792
729,7845 E LINCOLN WAY,Wooster,OH,44691,725000,2015-08-07,40.80516,-81.97792
730,E LIBERTY ST,Wooster,OH,44691,190100,2006-12-01,40.80516,-81.97792
731,MYERS,Wooster,OH,44691,155000,2011-08-12,40.80516,-81.97792
732,NONPARIEL RD,Wooster,OH,44691,121510,2008-08-11,40.80516,-81.97792
733,GEYERS CHAPEL RD,Wooster,OH,44691,518700,2015-06-04,40.80516,-81.97792
734,OLD AIRPORT RD,Wooster,OH,44691,150000,2006-09-29,40.80516,-81.97792
735,KING RD,Howard,OH,44691,1500,2005-07-27,40.80516,-81.97792
736,642 WASHINGTON ST,Wooster,OH,44691,94000,2005-06-29,40.805283,-81.927121
737,880 MILBURN RD NE,Massillon,OH,44646,62800,2012-02-28,40.80531,-81.49838000000001
738,840 9TH ST NE,Massillon,OH,44646,83900,2017-12-04,40.805411,-81.514258
739,2817 7TH ST NW,Canton,OH,44708,75000,2010-03-15,40.805417,-81.40585300000001
740,2425 7TH ST NW,Canton,OH,44708,21200,2013-09-09,40.805422,-81.40088100000001
741,324 OHIO AVE NE,Massillon,OH,44646,76900,2016-07-05,40.805446999999994,-81.52035
742,1128 WILLIAMS AVE NE,Massillon,OH,44646,20100,2012-04-03,40.805516,-81.510143
743,637 GASCHE ST,Wooster,OH,44691,70000,2009-12-18,40.805654,-81.929304
744,854 9TH ST NE,Massillon,OH,44646,84000,2018-05-29,40.805772999999995,-81.51423199999999
745,804 ARLINGTON AVE NW,Canton,OH,44708,28000,2019-02-22,40.805818,-81.400161
746,653 SPINK ST,Wooster,OH,44691,15000,2009-10-26,40.805831,-81.93186899999999
747,657 N BEVER ST,Wooster,OH,44691,100000,2018-05-23,40.805849,-81.938151
748,659 N BUCKEYE ST,Wooster,OH,44691,87500,2008-04-30,40.805934,-81.940115
749,822 MILTON CT NW,Canton,OH,44708,10000,2016-06-30,40.805989000000004,-81.40235600000001
750,882 WALES RD NE,Massillon,OH,44646,91900,2017-12-22,40.805993,-81.50931
751,2704 MILL RIDGE PATH NE,Massillon,OH,44646,1000,2017-10-05,40.806072,-81.480889
752,647 NORTHWESTERN AVE,Wooster,OH,44691,210000,2008-06-20,40.805403000000005,-81.950277
753,PASTURE REACH,Wooster,OH,44691,120000,2012-03-15,40.80516,-81.97792
754,1507 CHERRY RD NW,Massillon,OH,44647,57000,2007-06-25,40.806352000000004,-81.542849
755,710 BELMONT AVE,Wooster,OH,44691,85900,2007-07-23,40.806397,-81.930672
756,820 CLARENDON AVE NW,Canton,OH,44708,11900,2018-11-15,40.806405,-81.403109
757,234 SPRING ST,Wooster,OH,44691,65000,2018-02-14,40.806545,-81.940221
758,716 SPINK ST,Wooster,OH,44691,69000,2013-09-13,40.806576,-81.932229
759,919 WYOMING PL NE,Massillon,OH,44646,96000,2017-02-22,40.806663,-81.512188
760,710 PALMER ST,Wooster,OH,44691,59000,2014-08-08,40.806754999999995,-81.92486099999999
761,751 GASCHE ST,Wooster,OH,44691,72000,2016-03-02,40.80686,-81.929284
762,10180 WOOSTER ST NW,Massillon,OH,44647,14000,2010-06-25,40.806898,-81.54465
763,901 8TH ST NE,Massillon,OH,44646,73000,2015-02-20,40.807043,-81.516053
764,9158 MCQUAID RD,Orrville,OH,44667,38000,2009-08-17,40.80707,-81.814559
765,1590 MANCHESTER AVE NW,Massillon,OH,44647,77719,2012-09-25,40.807081,-81.60168900000001
766,2427 9TH ST NW,Canton,OH,44708,12000,2012-03-28,40.807101,-81.40066800000001
767,2411 9TH ST NW,Canton,OH,44708,41500,2018-12-28,40.807107,-81.400412
768,933 BROWN AVE NW,Canton,OH,44703,11000,2009-03-06,40.807144,-81.38620999999999
769,10280 WOOSTER ST NW,Massillon,OH,44647,102500,2009-11-13,40.807226,-81.546297
770,1263 WOODFOREST ST NW,Massillon,OH,44647,196300,2011-09-07,40.806606,-81.595525
771,722 QUINBY AVE,Wooster,OH,44691,184400,2018-08-20,40.806734999999996,-81.941377
772,230 COMMONWEALTH AVE NE,Massillon,OH,44646,95500,2007-04-05,40.807469,-81.522122
773,2620 FALLEN OAK CIR NE,Massillon,OH,44646,177000,2013-07-26,40.806782,-81.484797
774,1314 10TH ST NW,Canton,OH,44703,11500,2018-08-31,40.807561,-81.386659
775,4009 9TH ST NW,Canton,OH,44708,20000,2015-09-14,40.807885,-81.42108
776,975 PRESCOT AVE NW,Massillon,OH,44646,147000,2009-08-13,40.806886999999996,-81.463196
777,738 FOREST DR,Wooster,OH,44691,110000,2016-11-10,40.806999,-81.94246700000001
778,3141 10TH ST NW,Canton,OH,44708,89900,2018-08-13,40.808308000000004,-81.409906
779,4923 WOODSTONE AVE NW,Massillon,OH,44647,169500,2006-11-22,40.807354,-81.60069
780,10545 WOOSTER ST NW,Massillon,OH,44647,138000,2017-11-17,40.807572,-81.551011
781,819 ARBOR ST,Wooster,OH,44691,131500,2017-04-25,40.807672,-81.945387
782,808 N GRANT ST,Wooster,OH,44691,225000,2018-08-17,40.807913,-81.944119
783,1000 MILES AVE NW,Canton,OH,44708,50000,2019-02-05,40.808628999999996,-81.432887
784,4930 9TH ST NW,Canton,OH,44708,110000,2006-11-22,40.808084,-81.438327
785,4654 11TH ST NW,Canton,OH,44708,95000,2012-03-06,40.809129999999996,-81.431842
786,1009 GENOA AVE NW,Massillon,OH,44646,110000,2018-04-16,40.808409000000005,-81.465459
787,1125 MINUTEMAN AVE NW,Massillon,OH,44646,173000,2016-08-24,40.808507,-81.463219
788,966 MCKINLEY ST,Wooster,OH,44691,82000,2017-10-06,40.809306,-81.925954
789,813 EARL RD NW,Massillon,OH,44647,128000,2006-04-20,40.808578999999995,-81.54118100000001
790,1137 BROAD AVE NW,Canton,OH,44708,59300,2016-12-22,40.809515000000005,-81.404953
791,118 W PINE ST,Wooster,OH,44691,170000,2007-03-15,40.808658,-81.941179
792,1442 12TH ST NW,Canton,OH,44703,71700,2008-07-15,40.809523,-81.388837
793,1137 WERTZ AVE NW,Canton,OH,44708,20000,2015-03-19,40.809597,-81.40714200000001
794,1301 12TH ST NW,Canton,OH,44703,35000,2017-03-13,40.809697,-81.385665
795,1474 TYLERS MILL LN NE,Massillon,OH,44646,110000,2010-09-22,40.809753,-81.505174
796,1078 MARION AVE NW,Massillon,OH,44646,117500,2013-10-04,40.809329,-81.471053
797,1031 ROOSEVELT ST NE,Massillon,OH,44646,106000,2016-04-11,40.809519,-81.52025400000001
798,1846 HANKINS RD NE,Massillon,OH,44646,265000,2015-12-15,40.809577000000004,-81.49984
799,1220 ARNOLD AVE NW,Canton,OH,44703,15000,2017-03-22,40.810204,-81.38390799999999
800,1238 MCGREGOR AVE NW,Canton,OH,44703,35000,2008-04-01,40.810527,-81.38709899999999
801,1245 WORLEY AVE NW,Canton,OH,44703,9500,2011-10-28,40.810808,-81.379231
802,1247 SHORB AVE NW,Canton,OH,44703,37500,2018-11-27,40.810854,-81.380471
803,2613 ABBOTT PL NW,Canton,OH,44708,69500,2018-09-27,40.810885999999996,-81.403053
804,813 ROTCH AVE NE,Massillon,OH,44646,97000,2016-07-01,40.810928999999994,-81.51477299999999
805,1033 RIDGECREST DR,Wooster,OH,44691,133000,2017-07-05,40.810196999999995,-81.95810999999999
806,1035 ASHWOOD DR,Wooster,OH,44691,153100,2015-11-02,40.811107,-81.958627
807,1229 11TH ST NE,Massillon,OH,44646,96500,2007-04-30,40.811109,-81.51101700000001
808,1364 TYLERS MILL LN NE,Massillon,OH,44646,117000,2014-06-18,40.809769,-81.505719
809,1307 WOODLAND AVE NW,Canton,OH,44703,19000,2008-05-02,40.811486,-81.375799
810,1407 PEBBLE CHASE CIR NE,Massillon,OH,44646,151400,2010-04-01,40.810746,-81.50615400000001
811,1132 HOOVER PL NW,Canton,OH,44703,30000,2016-05-17,40.812026,-81.382903
812,1324 SHORB AVE NW,Canton,OH,44703,12000,2015-10-16,40.812086,-81.380037
813,1178 NANCY ANNA AVE NW,Massillon,OH,44646,153000,2018-02-16,40.812255,-81.48496999999999
814,1331 LOUISIANA AVE NW,Canton,OH,44703,19900,2018-08-10,40.812276000000004,-81.381419
815,3035 PARKWAY ST NW,Canton,OH,44708,79500,2008-01-07,40.812318,-81.408326
816,1233 SPRING VALLEY AVE NW,Canton,OH,44708,257000,2015-07-09,40.811865000000004,-81.44318
817,1323 S PARK AVE NW,Canton,OH,44708,160000,2017-04-21,40.812489,-81.41747600000001
818,1449 CLEVELAND AVE NW,Canton,OH,44703,4000,2015-06-23,40.814444,-81.379021
819,1526 MERINO CIR NE,Massillon,OH,44646,210000,2015-07-17,40.813765999999994,-81.50716
820,1006 BENNINGTON AVE NE,Massillon,OH,44646,118020,2008-07-28,40.813843,-81.512947
821,3041 15TH ST NW,Canton,OH,44708,85500,2017-08-09,40.81457,-81.408979
822,GREENWICH BLVD NW,Massillon,OH,44646,28000,2017-07-18,40.8146,-81.49852
823,14TH ST SE,Massillon,OH,44646,47000,2005-12-13,40.8146,-81.49852
824,JEFFERSON RD NE,Massillon,OH,44646,103000,2010-11-30,40.8146,-81.49852
825,WALNUT RD SE,Massillon,OH,44646,75000,2006-09-11,40.8146,-81.49852
826,JOHNSON ST SE,Massillon,OH,44646,62500,2005-12-23,40.8146,-81.49852
827,WALES RD NE,Massillon,OH,44646,30000,2017-06-06,40.8146,-81.49852
828,MEDILL AVE NE,Massillon,OH,44646,99000,2016-05-27,40.8146,-81.49852
829,1438 BROOKWOOD DR NW,Canton,OH,44708,135000,2008-01-16,40.813767,-81.45148499999999
830,326 GAIL AVE NE,Massillon,OH,44646,225000,2016-04-14,40.81456,-81.519453
831,FOREST AVE SE,Massillon,OH,44646,3500,2005-05-17,40.8146,-81.49852
832,PHILLIPS RD NE,Massillon,OH,44646,116000,2014-12-23,40.8146,-81.49852
833,SERENITY DR NW,Massillon,OH,44646,57500,2018-11-30,40.8146,-81.49852
834,PORTAGE ST NW,Massillon,OH,44646,750000,2017-08-17,40.8146,-81.49852
835,MONT CLAIR BLVD NW,Massillon,OH,44646,110000,2017-05-12,40.8146,-81.49852
836,BEATTY ST NW,Massillon,OH,44646,50000,2018-12-19,40.8146,-81.49852
837,2435 MARY LOU ST NW,Massillon,OH,44646,143000,2007-09-21,40.814831,-81.487737
838,1300 COTTAGE PL NW,Canton,OH,44703,68000,2005-06-14,40.814886,-81.38643499999999
839,1527 16TH ST NW,Canton,OH,44703,79000,2017-05-19,40.814999,-81.389643
840,4493 BABYLON AVE SW,Massillon,OH,44646,226200,2017-09-01,40.8146,-81.49852
841,7103 CRUSADER ST SW,Massillon,OH,44646,211400,2017-12-04,40.8146,-81.49852
842,1538 MANOR AVE NW,Canton,OH,44708,78000,2006-10-17,40.81507,-81.429381
843,6201 LLANFAIR ST SW,MASSILLON,OH,44646,247400,2018-08-28,40.8146,-81.49852
844,6170 LLANFAIR ST SW,Massillon,OH,44646,259700,2018-04-30,40.8146,-81.49852
845,8693 BECHTEL RD,Orrville,OH,44667,230000,2009-03-13,40.814606,-81.81876899999999
846,1466 MCNUTT DR,Wooster,OH,44691,124000,2005-06-22,40.815162,-81.923417
847,1201 AUBURN PL NW,Canton,OH,44703,26000,2015-05-28,40.815227,-81.383834
848,2923 HELEN PL NW,Canton,OH,44708,85000,2017-06-13,40.815290999999995,-81.405935
849,3524 MOONLIGHT BAY DR,Canton,OH,44708,251600,2018-04-16,40.815328,-81.41440899999999
850,3053 HELEN PL NW,Canton,OH,44708,65089,2016-08-26,40.815374,-81.40853800000001
851,2567 MARY LOU ST NW,Massillon,OH,44646,146000,2010-02-11,40.814783,-81.485615
852,1615 WALES RD NE,Massillon,OH,44646,105000,2011-03-11,40.81488,-81.508675
853,1846 NW LEBANON RD,Dalton,OH,44618,210500,2015-11-19,40.815087,-81.667433
854,1621 VASSAR AVE NW,Canton,OH,44703,64500,2007-05-23,40.815804,-81.374282
855,1538 EDMEYER AVE NW,Canton,OH,44708,112000,2019-05-06,40.815283,-81.405336
856,1551 1ST ST NE,Massillon,OH,44646,15000,2015-08-18,40.816016999999995,-81.526127
857,424 BLOOMINGTON AVE,Wooster,OH,44691,113500,2005-05-27,40.815644,-81.935472
858,TYNER ST NW,Canton,OH,44708,88500,2015-11-10,40.816140000000004,-81.43494
859,1515 CLEVELAND RD,Wooster,OH,44691,124000,2008-05-23,40.815771000000005,-81.937438
860,1511 BEALL AVE,Wooster,OH,44691,107500,2007-07-13,40.815811,-81.934099
861,1431 RAMBLEWOOD DR,Wooster,OH,44691,155100,2015-12-22,40.815846,-81.92154000000001
862,1774 CADBURY ST NW,Massillon,OH,44646,209000,2014-09-24,40.816013,-81.474616
863,HIGHLAND HILLS CIR,Howard,OH,44708,4000,2018-04-02,40.816140000000004,-81.43494
864,2664 BLUE ASH AVE NW,Canton,OH,44708,295000,2016-08-12,40.816140000000004,-81.43494
865,2594 PEACH LN,Wooster,OH,44691,135000,2006-03-27,40.816373999999996,-81.91179699999999
866,1701 10TH ST NE,Massillon,OH,44646,141000,2012-09-28,40.816378,-81.512703
867,2625 LIST ST NW,Massillon,OH,44646,137000,2009-08-31,40.815712,-81.484399
868,805 17TH ST NE,Canton,OH,44714,22100,2015-03-17,40.816458000000004,-81.364772
869,2615 BLUE ASH AVE NW,Canton,OH,44708,272500,2018-08-02,40.816140000000004,-81.43494
870,1721 JOLYNN ST NE,Massillon,OH,44646,148000,2018-11-21,40.816674,-81.519931
871,1639 WOODLAND AVE NW,Canton,OH,44703,35000,2013-01-31,40.816324,-81.378304
872,1539 SAUNDERS DR,Wooster,OH,44691,149900,2007-08-08,40.816415,-81.948993
873,19TH ST NW,Canton,OH,44708,50000,2018-08-01,40.816140000000004,-81.43494
874,1541 BEALL AVE,Wooster,OH,44691,205000,2018-01-31,40.816515,-81.934099
875,1536 RENWOOD ST,Wooster,OH,44691,160000,2013-10-24,40.816569,-81.924178
876,12475 WOOSTER ST NW,Massillon,OH,44647,138500,2007-06-28,40.816604999999996,-81.58738000000001
877,1564 ARTHUR DR,Wooster,OH,44691,240000,2008-04-23,40.816606,-81.95150100000001
878,1645 MILES AVE NW,Canton,OH,44708,99000,2005-10-06,40.81733,-81.43299499999999
879,1258 FAWNWOOD CIR,Wooster,OH,44691,150000,2014-10-16,40.816673,-81.921323
880,1730 COVENTRY RD NE,Massillon,OH,44646,69800,2014-03-28,40.817423,-81.50818199999999
881,1635 SPRING VALLEY AVE NW,Canton,OH,44708,144900,2013-10-25,40.816676,-81.441466
882,1514 MOSSGLEN CIR NE,Massillon,OH,44646,179900,2016-03-25,40.816731,-81.50098299999999
883,1810 THORNRIDGE RD NW,Massillon,OH,44646,113500,2013-11-05,40.81677,-81.464588
884,914 18TH ST NW,Canton,OH,44703,28000,2017-11-15,40.817653,-81.38064
885,1521 18TH ST NW,Canton,OH,44703,75800,2016-05-16,40.81766,-81.388863
886,801 18TH ST NE,Canton,OH,44714,30000,2019-02-12,40.817687,-81.364704
887,1112 18TH ST NW,Canton,OH,44703,103500,2007-04-20,40.817690999999996,-81.382756
888,1614 W PARK AVE NW,Canton,OH,44708,285000,2006-05-31,40.816489000000004,-81.422349
889,1717 CLEVELAND AVE NW,Canton,OH,44703,80000,2015-01-12,40.817096,-81.3804
890,1710 TURNBERRY CIR NW,Canton,OH,44708,327500,2014-09-16,40.81716,-81.45028
891,1715 TURNBERRY CIR NW,Canton,OH,44708,329000,2006-03-27,40.817258,-81.450631
892,1609 19TH ST NW,Canton,OH,44709,39000,2008-06-20,40.818425,-81.389511
893,1500 BRAMBLEWOOD CIR NE,Massillon,OH,44646,119000,2016-01-13,40.817909,-81.502271
894,1630 SAUNDERS DR,Wooster,OH,44691,180000,2008-01-11,40.81793,-81.949648
895,1225 18TH ST NW,Canton,OH,44703,41000,2016-07-20,40.818018,-81.384155
896,1114 19TH ST NW,Canton,OH,44709,84000,2006-11-06,40.818556,-81.382928
897,1824 SEDWICK AVE NW,Massillon,OH,44646,154000,2019-01-25,40.818067,-81.47074599999999
898,1917 FULTON RD NW,Canton,OH,44709,124000,2019-04-16,40.81807,-81.39086800000001
899,517 ALTA PL NW,Canton,OH,44703,69900,2007-11-13,40.818073999999996,-81.376953
900,1801 CLARENDON AVE NW,Canton,OH,44708,94900,2012-08-03,40.818675,-81.402108
901,1672 ARTHUR DR,Wooster,OH,44691,135000,2007-06-29,40.818228999999995,-81.951293
902,1804 JOLYNN ST NE,Massillon,OH,44646,128900,2015-01-09,40.817876,-81.519632
903,1919 MIAMI CT NE,Canton,OH,44714,77000,2005-07-01,40.819014,-81.363451
904,3121 PARKVIEW ST NW # 11A,Canton,OH,44708,79900,2013-04-03,40.819027,-81.41006999999999
905,1559 ROSEWOOD DR,Wooster,OH,44691,178000,2008-11-14,40.818536,-81.91343499999999
906,1222 PROVIDENCE RD NE,Massillon,OH,44646,70000,2014-10-03,40.819183,-81.50806800000001
907,1857 WHIPPLE AVE NW,Canton,OH,44708,66800,2005-10-05,40.819539,-81.425157
908,1608 ROSEWOOD DR,Wooster,OH,44691,195000,2012-05-18,40.81878,-81.91427
909,1215 19TH ST NW,Canton,OH,44709,142000,2018-06-19,40.818851,-81.383904
910,1861 WINDSOR RD NE,Massillon,OH,44646,150000,2014-06-26,40.818985,-81.512904
911,1828 HARBOUR CIR NW # 13B,Canton,OH,44708,74000,2015-03-05,40.8199,-81.410386
912,1811 JACKSON AVE NW,Massillon,OH,44646,153900,2016-12-19,40.819175,-81.483411
913,1611 20TH ST NW,Canton,OH,44709,76500,2010-05-14,40.819307,-81.38995
914,1818 HARBOUR CIR NW # 12D,Canton,OH,44708,80000,2018-01-12,40.819959000000004,-81.410383
915,1722 GASCHE ST,Wooster,OH,44691,84200,2013-05-15,40.820029,-81.92948299999999
916,2875 ROANOKE ST NW,Massillon,OH,44646,182000,2016-11-04,40.819487,-81.47884499999999
917,2623 EASTWOOD DR,Wooster,OH,44691,134000,2015-03-31,40.81954,-81.909442
918,1922 LAKESIDE AVE NW,Canton,OH,44708,52000,2015-12-30,40.820474,-81.409118
919,1200 21ST ST NE,Canton,OH,44714,42000,2017-07-11,40.820627,-81.360827
920,1355 21ST ST NW,Canton,OH,44709,82000,2010-03-25,40.820657000000004,-81.38674
921,13862 WOOSTER ST NW,North Lawrence,OH,44666,11400,2012-10-23,40.820819,-81.61344100000001
922,2001 BROAD AVE NW,Canton,OH,44708,94000,2016-01-11,40.82087,-81.40417099999999
923,1706 FLORIAN DR NW,Canton,OH,44709,73000,2017-09-15,40.820896999999995,-81.390183
924,2921 19TH ST NW,Canton,OH,44708,110400,2017-04-17,40.819945000000004,-81.406334
925,3373 LATTASBURG RD,Wooster,OH,44691,106300,2016-09-15,40.819953000000005,-81.999648
926,1809 HARBOUR CIR NW # 21B,Canton,OH,44708,172000,2017-05-30,40.820029,-81.41074300000001
927,519 21ST ST NW,Canton,OH,44709,57500,2016-07-25,40.821157,-81.37699599999999
928,2115 CLEVELAND AVE NW,Canton,OH,44709,68900,2011-02-11,40.821158000000004,-81.382481
929,5380 SAINT ANDREWS ST NW,Canton,OH,44708,435000,2012-07-31,40.820058,-81.449373
930,2566 MEADOWSIDE ST NW,Massillon,OH,44647,107500,2010-04-22,40.820807,-81.586865
931,2030 WHIPPLE AVE NW,Canton,OH,44708,80000,2014-05-30,40.821965999999996,-81.42464100000001
932,1589 LEMAR DR,Wooster,OH,44691,115000,2011-10-25,40.821613,-81.91614100000001
933,2103 BROAD AVE NW,Canton,OH,44708,122500,2018-05-01,40.821745,-81.40411
934,855 MINDY LN,Wooster,OH,44691,102000,2009-11-20,40.822014,-81.955648
935,1099 MINDY LN,Wooster,OH,44691,825000,2012-12-28,40.822027,-81.95900999999999
936,2134 UNIVERSITY AVE NW,Canton,OH,44709,260000,2015-12-21,40.82137,-81.368788
937,330 KURTZ ST,Wooster,OH,44691,126900,2018-05-09,40.821391999999996,-81.937345
938,7120 CORNICHE ST NW,Massillon,OH,44646,155000,2007-11-15,40.822502,-81.484414
939,12560 KAYWOOD ST NW,Massillon,OH,44647,100000,2011-06-09,40.822992,-81.588014
940,1671 LEMAR DR,Wooster,OH,44691,124750,2007-04-16,40.822587,-81.91370699999999
941,1753 CANTERBURY LN,Wooster,OH,44691,265000,2014-04-11,40.823046000000005,-81.949362
942,2201 BENDEN DR,Wooster,OH,44691,140000,2007-02-01,40.822693,-81.907825
943,2419 MAPLE AVE NE,Canton,OH,44714,35000,2016-12-05,40.823085,-81.353514
944,1850 CHRISTMAS RUN BLVD,Wooster,OH,44691,122000,2006-04-26,40.822065,-81.946207
945,2951 THACKERAY AVE NW,Massillon,OH,44646,37000,2017-10-04,40.823126,-81.489391
946,1513 24TH ST NE,Canton,OH,44714,21000,2016-09-19,40.823147999999996,-81.356367
947,520 SHERI AVE NE,Massillon,OH,44646,120000,2015-12-28,40.822953000000005,-81.517454
948,2200 BENDEN DR,Wooster,OH,44691,575000,2013-06-06,40.822967,-81.907795
949,6599 DONELSON CIR NW,Canton,OH,44708,268000,2009-02-24,40.823031,-81.474259
950,2875 BEAUMONT AVE NW,Massillon,OH,44647,100000,2011-09-29,40.823696000000005,-81.551964
951,1312 25TH ST NE,Canton,OH,44714,65500,2015-06-04,40.823736,-81.359234
952,2003 WADSWORTH RD,Orrville,OH,44667,135000,2015-03-02,40.823079,-81.764811
953,1701 LEMAR DR,Wooster,OH,44691,405100,2008-10-14,40.823114000000004,-81.913337
954,1852 CANTERBURY LN,Wooster,OH,44691,350000,2017-03-30,40.822764,-81.947868
955,205 23RD ST NW,Canton,OH,44709,184000,2005-05-12,40.82288,-81.370148
956,810 25TH ST NW,Canton,OH,44709,92500,2018-02-28,40.823943,-81.380197
957,4500 LATTASBURG RD,Wooster,OH,44691,225000,2018-05-14,40.823457,-82.01933199999999
958,358 MEADOW LN,Wooster,OH,44691,237500,2013-05-29,40.823691,-81.94711600000001
959,2512 LANDSCAPE AVE NW,Canton,OH,44709,75000,2006-12-14,40.824451,-81.379987
960,14093 WOOSTER ST NW,North Lawrence,OH,44666,150000,2005-10-31,40.824274,-81.61885600000001
961,520 SANDY AVE NE,Massillon,OH,44646,144000,2018-04-27,40.8239,-81.517882
962,500 SANDY AVE NE,Massillon,OH,44646,135000,2008-05-21,40.823909,-81.518135
963,1426 26TH ST NW,Canton,OH,44709,65000,2015-03-26,40.824998,-81.38721
964,1839 AUTUMN RUN,Wooster,OH,44691,320000,2007-01-17,40.823935,-81.950989
965,2038 ORCHARD ST,Wooster,OH,44691,57000,2009-05-11,40.825026,-81.932129
966,3052 TORREY PINES CIR NW,Canton,OH,44708,599900,2007-09-25,40.824543,-81.476024
967,3073 WICKFORD AVE NW,Canton,OH,44708,192000,2007-12-21,40.824606,-81.481301
968,3419 25TH ST NW,Canton,OH,44708,92500,2014-02-06,40.825253000000004,-81.412188
969,2953 WILDRIDGE DR NW,Massillon,OH,44646,160000,2018-11-28,40.824707000000004,-81.49724599999999
970,2264 N GEYERS CHAPEL RD,Wooster,OH,44691,120000,2016-03-04,40.824785999999996,-81.896794
971,3045 DUNBARTON AVE NW,Canton,OH,44708,267500,2012-11-09,40.825534000000005,-81.451386
972,4637 PRESERVE DR NW,Canton,OH,44708,110000,2012-06-08,40.825772,-81.433582
973,3090 WICKFORD AVE NW,Canton,OH,44708,255000,2017-12-12,40.824382,-81.480879
974,1204 TAGGART ST NW,Massillon,OH,44646,107500,2017-10-19,40.824393,-81.508391
975,1898 CANTERBURY LN,Wooster,OH,44691,262000,2016-12-28,40.824464,-81.95004200000001
976,3404 26TH ST NW,Canton,OH,44708,100000,2008-05-23,40.82612,-81.41203399999999
977,7133 HOVERLAND AVE NW,Massillon,OH,44646,149400,2016-12-01,40.825406,-81.484072
978,1611 RIDGEWAY PL NW,Canton,OH,44709,82000,2018-10-19,40.826371,-81.389487
979,4632 PRESERVE DR NW,Canton,OH,44708,126500,2009-03-24,40.825663,-81.433234
980,2109 CLEVELAND RD,Wooster,OH,44691,400000,2008-08-15,40.825769,-81.932834
981,4200 BELLWOOD DR NW,Canton,OH,44708,120000,2013-04-04,40.825925,-81.42153
982,1600 27TH ST NW,Canton,OH,44709,69900,2018-08-27,40.827284999999996,-81.38893900000001
983,1023 28TH ST NE,Canton,OH,44714,57500,2015-11-19,40.827483,-81.362623
984,1442 PORTAGE RD,Wooster,OH,44691,61000,2013-09-27,40.827569,-81.920322
985,2036 29TH ST NE,Canton,OH,44705,49000,2018-10-11,40.82757,-81.347712
986,1495 CROSSWIND CT,Wooster,OH,44691,30000,2005-04-06,40.82768,-81.961524
987,2440 GLENMONT RD NW,Canton,OH,44708,215000,2018-09-28,40.826963,-81.43946
988,778 FAIRVIEW CIR,Wooster,OH,44691,127000,2007-06-21,40.82698,-81.930791
989,3811 ASHWOOD ST NW,Canton,OH,44708,160000,2018-03-07,40.827166,-81.416748
990,819 CONCORD ST NW,Massillon,OH,44646,154900,2012-11-13,40.828142,-81.513317
991,5062 MONO DR,Wooster,OH,44691,130000,2009-10-09,40.826719,-81.87317900000001
992,2384 TATUM LN,Wooster,OH,44691,202900,2006-04-25,40.828405,-81.946247
993,2824 MARSH AVE NW,Canton,OH,44708,45000,2018-11-16,40.828416,-81.431216
994,712 CONCORD ST NW,Massillon,OH,44646,178900,2016-07-05,40.827835,-81.514822
995,2331 BURBANK RD,Wooster,OH,44691,130000,2018-10-31,40.827901000000004,-81.938591
996,3200 DELLWOOD AVE NW,Canton,OH,44708,191000,2017-07-28,40.827940000000005,-81.458801
997,2843 MARSH AVE NW,Canton,OH,44708,117500,2017-03-28,40.828154,-81.43111400000001
998,916 SPANGLER RD NE,Canton,OH,44714,35000,2014-01-31,40.828918,-81.36363
999,2613 MARSH AVE NW,Canton,OH,44708,119900,2013-06-06,40.82755,-81.432698
1000,2957 HARRISBURG RD NE,Canton,OH,44705,27500,2013-10-15,40.829008,-81.348507
1001,3236 DELRAY AVE NW,Massillon,OH,44646,126500,2006-05-19,40.828494,-81.49641899999999
1002,2830 SHARONWOOD AVE NW,Canton,OH,44708,219500,2007-07-30,40.829143,-81.419421
1003,443 E HIGHLAND AVE,Wooster,OH,44691,107000,2006-04-14,40.828443,-81.934467
1004,908 S VINE ST,Orrville,OH,44667,74500,2008-04-18,40.829091999999996,-81.765883
1005,920 S VINE ST,Orrville,OH,44667,120000,2018-12-18,40.829315,-81.765875
1006,3304 ANGLO CIR NW,Canton,OH,44708,219500,2015-11-10,40.829359000000004,-81.466797
1007,3253 STILLWATER AVE NW,Canton,OH,44708,225000,2016-09-08,40.829375,-81.478099
1008,6135 GRAIL CIR NW,Canton,OH,44708,214900,2017-10-31,40.829489,-81.464197
1009,3260 CATALINA AVE NW,Massillon,OH,44646,76500,2011-08-05,40.829003,-81.497473
1010,2955 SAINT ELMO AVE NE,Canton,OH,44714,24500,2014-02-25,40.829684,-81.356712
1011,2727 WESTDALE RD NW,Canton,OH,44708,5750,2015-11-06,40.829924,-81.450373
1012,2500 CLEVELAND RD APT 206,Wooster,OH,44691,56000,2019-01-04,40.829976,-81.931315
1013,8140 MILMONT ST NW,Massillon,OH,44646,133000,2017-06-06,40.830441,-81.503279
1014,1626 28TH ST NW,Canton,OH,44709,103400,2009-11-24,40.829976,-81.389451
1015,3600 FULTON DR NW,Canton,OH,44718,247000,2006-11-28,40.830715999999995,-81.41370699999999
1016,8722 MILMONT ST NW,Massillon,OH,44646,16900,2008-02-29,40.830754999999996,-81.514609
1017,1401 30TH ST NE,Canton,OH,44714,34000,2006-04-14,40.830866,-81.357742
1018,2452 BARRINGTON WAY UNIT 412,Wooster,OH,44691,179825,2005-10-17,40.830278,-81.960175
1019,1133 30TH ST NE,Canton,OH,44714,86000,2007-08-21,40.830953,-81.36063
1020,2452 BARRINGTON WAY UNIT 440,Wooster,OH,44691,157625,2007-08-27,40.830278,-81.960175
1021,2465 MICHAEL WAY,Wooster,OH,44691,275700,2015-10-02,40.830420000000004,-81.955619
1022,2424 DAYBREAK DR,Wooster,OH,44691,33900,2006-11-13,40.830459000000005,-81.954504
1023,2520 MONTCLAIR AVE,Wooster,OH,44691,108000,2011-06-15,40.830483,-81.952274
1024,8674 MILMONT ST NW,Massillon,OH,44646,150000,2018-05-15,40.830724,-81.513664
1025,908 BEAVER ST,Orrville,OH,44667,115000,2018-05-30,40.830178000000004,-81.770777
1026,920 NORTHVIEW DR,Wooster,OH,44691,127500,2018-12-10,40.831515,-81.927656
1027,1224 31ST ST NE,Canton,OH,44714,76700,2013-09-20,40.831565000000005,-81.35996
1028,1094 NORTHVIEW DR,Wooster,OH,44691,92000,2006-12-01,40.831568,-81.930346
1029,2009 ORD PL NW,Canton,OH,44709,112500,2005-06-24,40.83097,-81.393693
1030,723 30TH ST NE,Canton,OH,44714,1250000,2006-06-30,40.831092,-81.364589
1031,2559 31ST ST NE,Canton,OH,44705,52200,2015-09-10,40.831796000000004,-81.33816800000001
1032,317 30TH ST NW,Canton,OH,44709,133000,2006-05-03,40.831224,-81.370735
1033,3416 STILLWATER AVE NW,Canton,OH,44708,146200,2012-05-03,40.831326000000004,-81.477417
1034,1531 SUNSET LN,Wooster,OH,44691,130000,2018-09-26,40.831911,-81.91620400000001
1035,13321 YOUTH ST,North Lawrence,OH,44666,115500,2014-01-03,40.831602000000004,-81.60268
1036,2652 TANGLEWOOD ST,Wooster,OH,44691,174500,2013-07-29,40.831725,-81.921295
1037,3750 FULTON DR NW,Canton,OH,44718,150000,2017-01-31,40.831734999999995,-81.41601899999999
1038,3409 CROYDON DR NW,Canton,OH,44718,209000,2013-12-02,40.831814,-81.411486
1039,2609 IMPERIAL ST,Wooster,OH,44691,103500,2017-12-29,40.83186,-81.949683
1040,2537 OAK HILL RD,Wooster,OH,44691,115000,2009-05-07,40.832397,-81.953209
1041,6105 CEDAR LN NW,Canton,OH,44708,90000,2017-11-15,40.832428,-81.463852
1042,2881 CHARING CROSS RD NW,Canton,OH,44708,108400,2011-06-30,40.831495000000004,-81.428145
1043,2626 CLEVELAND RD,Wooster,OH,44691,1351300,2015-03-31,40.831505,-81.930616
1044,930 NORTHVIEW DR,Wooster,OH,44691,97000,2018-10-16,40.831517,-81.927813
1045,2931 SHARONWOOD AVE NW,Canton,OH,44708,121900,2016-08-19,40.831547,-81.420826
1046,130 31ST ST NW,Canton,OH,44709,122500,2017-12-29,40.831977,-81.366718
1047,2745 MELROSE DR,Wooster,OH,44691,70000,2009-03-30,40.832553000000004,-81.915363
1048,1111 SERENITY LN,Wooster,OH,44691,248000,2017-07-20,40.832001,-81.954714
1049,851 CLEVELAND AVE,Orrville,OH,44667,50000,2008-10-08,40.832014,-81.768715
1050,1820 31ST ST NW,Canton,OH,44709,69500,2009-05-21,40.832786,-81.390836
1051,1209 31ST ST NW,Canton,OH,44709,41500,2008-11-17,40.83287,-81.383779
1052,2847 N GEYERS CHAPEL RD,Wooster,OH,44691,300000,2018-08-03,40.832156,-81.896621
1053,4814 HILLS AND DALES RD NW,Canton,OH,44708,750000,2011-12-13,40.833148,-81.43471
1054,2831 BRENTWOOD RD NW,Canton,OH,44708,235000,2009-10-28,40.832648,-81.44659
1055,1606 33RD ST NE,Canton,OH,44714,57800,2015-06-18,40.833231,-81.354943
1056,2745 EBY RD,Wooster,OH,44691,100000,2016-09-14,40.833248,-81.861616
1057,8404 STUHLDREHER ST NW,Massillon,OH,44646,139900,2014-05-23,40.83271,-81.508437
1058,8734 GLENARDEN CIR NW,Massillon,OH,44646,189900,2016-06-13,40.832728,-81.515804
1059,2891 CHARING CROSS RD NW,Canton,OH,44708,150000,2005-11-14,40.832765,-81.428606
1060,8299 STUHLDREHER ST NW,Massillon,OH,44646,105000,2015-05-27,40.832814,-81.506365
1061,2699 LEE DR,Wooster,OH,44691,150500,2016-08-03,40.832908,-81.911321
1062,6946 RED DEER CIR NW,Canton,OH,44708,199000,2008-04-30,40.832524,-81.479906
1063,2710 CHRISTMAS RUN BLVD,Wooster,OH,44691,137234,2006-05-31,40.833199,-81.944801
1064,3683 BARRINGTON PL NW,Canton,OH,44708,86000,2012-05-04,40.833836,-81.464919
1065,1425 HICKORY LN,Wooster,OH,44691,148000,2010-09-03,40.833368,-81.92048
1066,527 32ND ST NW,Canton,OH,44709,110000,2006-11-06,40.833513,-81.374333
1067,2700 CLEVELAND RD APT 2E,Wooster,OH,44691,120000,2007-11-27,40.833057000000004,-81.931294
1068,1208 34TH ST NE,Canton,OH,44714,95000,2015-06-05,40.834255999999996,-81.35988499999999
1069,3617 BARRINGTON PL NW,Canton,OH,44708,19000,2018-01-08,40.833887,-81.466726
1070,3405 KUEMERLE CT NE,Canton,OH,44705,131000,2005-06-27,40.833954,-81.348139
1071,3410 MIDDLEBRANCH AVE NE,Canton,OH,44705,23000,2006-11-27,40.834152,-81.34644899999999
1072,8583 ASHLAND RD,Wooster,OH,44691,162000,2016-09-30,40.834209,-82.08676
1073,2837 MELROSE DR,Wooster,OH,44691,159000,2017-08-25,40.833644,-81.915379
1074,128 W OAK ST,Orrville,OH,44667,101000,2006-04-06,40.834359,-81.764881
1075,2024 DENNISON PL NW,Canton,OH,44709,122500,2018-06-27,40.835407000000004,-81.39320500000001
1076,2911 GRAUSTARK PATH,Wooster,OH,44691,131000,2007-08-29,40.834436,-81.934249
1077,1914 MOUNT VERNON BLVD NW,Canton,OH,44709,136700,2019-04-18,40.834443,-81.391447
1078,2006 MOUNT VERNON BLVD NW,Canton,OH,44709,115500,2016-08-12,40.834474,-81.392815
1079,526 MCGILL ST,Orrville,OH,44667,46750,2006-06-26,40.8359,-81.76696
1080,3623 BLACKBURN RD NW,Canton,OH,44718,219000,2013-05-31,40.83502,-81.414573
1081,3514 CLERMONT ST NW,North Lawrence,OH,44666,315000,2013-05-14,40.835116,-81.619132
1082,2000 34TH ST NW,Canton,OH,44709,69000,2005-01-18,40.836183,-81.392306
1083,3614 HARMONT AVE NE,Canton,OH,44705,550000,2006-05-10,40.835761,-81.32701800000001
1084,520 BEAVER ST,Orrville,OH,44667,15100,2012-08-17,40.836424,-81.770409
1085,3252 WOODRIDGE AVE NW,Canton,OH,44718,215400,2018-01-08,40.835152,-81.400296
1086,1920 34TH ST NW,Canton,OH,44709,124900,2016-07-12,40.836169,-81.391762
1087,2725 MARET ST NE,Canton,OH,44705,2000000,2017-03-29,40.836213,-81.33359899999999
1088,624 35TH ST NW,Canton,OH,44709,166500,2019-01-23,40.836244,-81.376237
1089,200 W PARADISE ST,Orrville,OH,44667,45000,2008-08-25,40.836653000000005,-81.765783
1090,7968 OAKDALE ST NW,Massillon,OH,44646,115900,2013-04-24,40.836681,-81.499247
1091,4521 VICTOR ST NW,Canton,OH,44718,2500,2017-11-16,40.83674,-81.427964
1092,1001 35TH ST NW,Canton,OH,44709,96500,2015-05-15,40.83698,-81.381816
1093,516 E PARADISE ST,Orrville,OH,44667,125000,2011-12-16,40.836572,-81.759621
1094,SPANGLER RD NE,Canton,OH,44714,275000,2009-07-07,40.83645,-81.35911999999999
1095,2212 W HIGH ST,Orrville,OH,44667,65000,2012-01-31,40.83729,-81.76341
1096,S MAIN ST,Orrville,OH,44667,40000,2008-04-21,40.83729,-81.76341
1097,3047 EBY RD,Smithville,OH,44677,157900,2007-05-23,40.836911,-81.861274
1098,FUTURE ST,Orrville,OH,44667,35000,2006-01-10,40.83729,-81.76341
1099,827 35TH ST NW,Canton,OH,44709,109900,2015-05-26,40.836999,-81.37944300000001
1100,200 36TH ST NW,Canton,OH,44709,245000,2012-07-30,40.837098,-81.36755500000001
1101,3090 ASPEN DR,Wooster,OH,44691,60000,2011-12-02,40.837325,-81.988957
1102,8709 EMERSON RD,Orrville,OH,44667,120000,2018-03-27,40.83729,-81.76341
1103,5636 EVERHARD RD NW,Canton,OH,44718,159900,2015-03-05,40.837615,-81.454994
1104,7777 OAKDALE ST NW,Massillon,OH,44646,117000,2008-10-17,40.836839000000005,-81.495914
1105,501 E PARADISE ST,Orrville,OH,44667,119100,2007-02-09,40.836845000000004,-81.75944399999999
1106,3609 ARNOLD AVE NW,Canton,OH,44709,29900,2012-08-21,40.838048,-81.383491
1107,3703 MIDDLEBRANCH AVE NE,Canton,OH,44705,93000,2005-12-09,40.838089000000004,-81.346594
1108,11336 FORTY CORNERS RD NW,Massillon,OH,44647,162000,2010-02-17,40.837389,-81.56324000000001
1109,3162 BRIARWOOD DR,Wooster,OH,44691,237500,2018-05-01,40.837804999999996,-81.978625
1110,1810 36TH ST NW,Canton,OH,44709,210000,2018-05-31,40.837903000000004,-81.390755
1111,130 MOHICAN AVE,Orrville,OH,44667,86000,2016-12-07,40.83833,-81.777609
1112,3221 ASPEN DR,Wooster,OH,44691,237500,2015-07-13,40.838134000000004,-81.98722099999999
1113,3911 WOODLEIGH AVE NW,Canton,OH,44718,330000,2010-01-19,40.837711999999996,-81.47189300000001
1114,600 E CHESTNUT ST,Orrville,OH,44667,5450000,2018-08-28,40.838195,-81.75816800000001
1115,3716 KAISER AVE NE # 18,Canton,OH,44705,125000,2018-10-26,40.838215000000005,-81.351784
1116,340 37TH ST NW,Canton,OH,44709,148900,2018-08-08,40.838260999999996,-81.370334
1117,5926 SNOWSHOE CIR NW,Canton,OH,44718,140000,2008-04-18,40.838265,-81.460732
1118,2835 COLUMBUS RD NE,Canton,OH,44705,115000,2017-03-03,40.838383,-81.333563
1119,9553 ASHLAND RD,Wooster,OH,44691,32200,2016-03-03,40.839062,-82.09921
1120,5934 SNOWSHOE CIR NW,Canton,OH,44718,177500,2013-09-13,40.838135,-81.460738
1121,3200 ASPEN DR,Wooster,OH,44691,250000,2018-04-05,40.838164,-81.987646
1122,641 TORI CIR,Wooster,OH,44691,153000,2016-04-01,40.838184999999996,-81.93196
1123,3725 ARNOLD AVE NW,Canton,OH,44709,77600,2018-08-15,40.839462,-81.383144
1124,5391 CINDERFORD ST NW,Canton,OH,44718,218500,2016-09-27,40.839483,-81.450183
1125,3275 BAYBERRY CV,Wooster,OH,44691,115500,2006-05-15,40.83887,-81.922841
1126,3976 SAINT EDMUND AVE NW,Canton,OH,44718,184000,2012-02-14,40.838993,-81.44865300000001
1127,1424 37TH ST NW,Canton,OH,44709,234000,2015-10-01,40.838757,-81.386076
1128,2233 TERRAPIN TRL,Orrville,OH,44667,345000,2007-03-22,40.839411,-81.797384
1129,15680 LAWMONT ST,North Lawrence,OH,44666,87400,2013-05-01,40.840206,-81.646271
1130,8957 CANAL PL NW,Massillon,OH,44647,165000,2012-10-15,40.839596,-81.519984
1131,3346 BAYBERRY CV,Wooster,OH,44691,107500,2014-05-08,40.83975,-81.92246
1132,800 W MARKET ST,Orrville,OH,44667,40806,2013-12-17,40.840583,-81.77338
1133,2344 PEBBLE BROOK PATH,Orrville,OH,44667,240000,2007-05-18,40.839323,-81.80042399999999
1134,3312 BAYBERRY CV,Wooster,OH,44691,128000,2010-08-16,40.839333,-81.92246800000001
1135,3417 PECAN LN,Wooster,OH,44691,85000,2014-09-03,40.840794,-81.91891899999999
1136,711 W MARKET ST,Orrville,OH,44667,12500,2017-09-15,40.84085,-81.772335
1137,8949 HINER RD,Wooster,OH,44691,144500,2015-04-15,40.839374,-82.091879
1138,4077 WALES AVE NW,Massillon,OH,44646,210000,2018-05-18,40.840236,-81.501756
1139,1722 38TH ST NW,Canton,OH,44709,64600,2018-07-16,40.840973,-81.389674
1140,3848 BERNARD AVE NW,Canton,OH,44709,60000,2016-04-05,40.841004999999996,-81.379509
1141,109 MOHICAN AVE,Orrville,OH,44667,102000,2014-09-29,40.84047,-81.777811
1142,400 E WATER ST,Orrville,OH,44667,95000,2012-04-20,40.841167,-81.760251
1143,9527 VAN ZILE ST,Wooster,OH,44691,155000,2009-05-29,40.8406,-82.098929
1144,4022 CYPRESS CT NE,Canton,OH,44705,58500,2013-02-27,40.841353999999995,-81.347324
1145,3742 CLEVELAND AVE NW,Canton,OH,44709,137000,2007-09-25,40.839886,-81.390273
1146,2244 39TH ST NW,Canton,OH,44709,6000,2017-04-24,40.841396,-81.39625699999999
1147,2224 39TH ST NW,Canton,OH,44709,65000,2018-03-02,40.841402,-81.39636899999999
1148,1010 W MARKET ST,Orrville,OH,44667,36500,2013-03-04,40.840603,-81.775613
1149,2124 39TH ST NW,Canton,OH,44709,49300,2012-02-15,40.841551,-81.393956
1150,4131 CARNEGIE AVE NW,Massillon,OH,44646,149500,2016-10-28,40.840953000000006,-81.497091
1151,217 N ELLA ST,Orrville,OH,44667,85000,2006-02-17,40.841646000000004,-81.76999
1152,223 N ELLA ST,Orrville,OH,44667,100000,2009-04-02,40.841695,-81.769988
1153,118 SMUCKER ST,Orrville,OH,44667,147000,2019-04-02,40.841057,-81.785611
1154,2015 39TH ST NW,Canton,OH,44709,82000,2008-09-04,40.841992,-81.392771
1155,710 40TH ST NW,Canton,OH,44709,84000,2006-01-31,40.842133000000004,-81.37725400000001
1156,3512 SNYDER DR,Wooster,OH,44691,121490,2008-05-30,40.841283000000004,-81.935035
1157,TRINITY PL NW,Canton,OH,44709,46200,2014-08-06,40.84214,-81.38565
1158,40TH ST NW,Canton,OH,44709,44700,2007-08-01,40.84214,-81.38565
1159,SHANABRUCK AVE NW,Canton,OH,44709,41500,2016-08-31,40.84214,-81.38565
1160,4017 PELHAM,Canton,OH,44714,116000,2007-01-12,40.841448,-81.35463399999999
1161,SAFARI TRL,Canton,OH,44709,3000,2017-03-07,40.84214,-81.38565
1162,SAFARI TRL,Canton,OH,44709,4000,2010-05-10,40.84214,-81.38565
1163,1203 38TH ST NW,Canton,OH,44709,71000,2007-05-11,40.840908,-81.382931
1164,3916 VERNON AVE NW,Canton,OH,44709,67900,2018-10-22,40.84215,-81.384918
1165,3991 ZINK DR NW,Canton,OH,44718,164900,2015-09-24,40.842541,-81.425993
1166,1532 40TH ST NW,Canton,OH,44709,1000,2007-03-27,40.842544000000004,-81.386849
1167,4465 MICHAEL DR NW,Canton,OH,44718,190500,2016-11-30,40.842083,-81.427371
1168,36TH ST NW,Canton,OH,44709,245000,2012-07-30,40.84214,-81.38565
1169,4177 COLUMBIA AVE NW,Massillon,OH,44646,107000,2009-12-30,40.841558,-81.49885
1170,1700 W CHURCH ST,Orrville,OH,44667,355100,2011-08-16,40.842242999999996,-81.78708
1171,731 40TH ST NW,Canton,OH,44709,90000,2006-09-29,40.842418,-81.37755200000001
1172,601 41ST ST NW,Canton,OH,44709,123500,2006-10-27,40.842757,-81.37576899999999
1173,4282 GREENWAY TRAIL ST NW,Massillon,OH,44647,155900,2007-05-14,40.843012,-81.522612
1174,BROOKDALE ST NW,Canton,OH,44709,103000,2017-08-08,40.84214,-81.38565
1175,290 E MILLTOWN RD,Wooster,OH,44691,500000,2006-05-16,40.843396999999996,-81.937495
1176,4334 GREENWAY TRAIL ST NW,Massillon,OH,44647,140900,2005-01-31,40.844077,-81.523184
1177,12996 BURTON CITY RD,Orrville,OH,44667,134500,2015-02-20,40.844277000000005,-81.748115
1178,4452 FOREST GLEN AVE NW,Massillon,OH,44647,160000,2017-10-06,40.844653,-81.52294300000001
1179,4487 FOREST GLEN AVE NW,Massillon,OH,44647,154000,2010-05-14,40.844772,-81.52245699999999
1180,8761 GLADYS ST NW,Massillon,OH,44646,133400,2012-03-16,40.844783,-81.514314
1181,2325 43RD ST NW,Canton,OH,44709,62500,2009-02-20,40.845659000000005,-81.396681
1182,4483 FOREST GLEN AVE NW,Massillon,OH,44647,135000,2012-09-27,40.844828,-81.522566
1183,1169 N CROWN HILL RD,Orrville,OH,44667,150000,2007-07-30,40.84499,-81.78434
1184,4509 FOREST GLEN AVE NW,Massillon,OH,44647,148000,2015-08-14,40.844429999999996,-81.522374
1185,1923 W HIGH ST,Orrville,OH,44667,95000,2014-12-01,40.844487,-81.79405200000001
1186,2501 IRONSTONE ST NE,Canton,OH,44705,195200,2009-08-07,40.844549,-81.339691
1187,9272 SHADY TRAIL ST NW,Massillon,OH,44647,155900,2005-05-26,40.845591,-81.524426
1188,3743 BURBANK RD,Wooster,OH,44691,2174717,2006-12-04,40.845744,-81.943779
1189,4561 BROOKHAVEN CIR NE,Canton,OH,44705,98000,2012-01-20,40.846042,-81.337181
1190,3873 CLEVELAND RD,Wooster,OH,44691,98500,2013-12-31,40.846859,-81.927735
1191,1140 CHURCH HILL CT,Wooster,OH,44691,45000,2006-07-21,40.84691,-81.959153
1192,1686 SPRINGWOOD DR,Wooster,OH,44691,28000,2017-01-04,40.846947,-81.915977
1193,4497 HENRYS MILL CIR NW,Canton,OH,44718,350000,2018-07-16,40.846132,-81.460541
1194,4535 PARKDALE AVE NW,Canton,OH,44718,135000,2010-10-27,40.846591,-81.458958
1195,2432 45TH ST NW,Canton,OH,44709,89900,2018-11-09,40.847636,-81.398538
1196,4516 PAIGE AVE NW,Canton,OH,44709,36500,2019-04-26,40.847869,-81.396054
1197,3991 INVERNESS DR,Wooster,OH,44691,199000,2006-12-28,40.847947,-81.950378
1198,4576 ERIE AVE NW,Canal Fulton,OH,44614,15000,2011-09-26,40.847237,-81.544578
1199,4330 DRESSLER RD NW,Canton,OH,44718,612850,2010-12-29,40.847307,-81.43425500000001
1200,1431 EASTHILL SQ NE,Canton,OH,44714,73000,2018-02-12,40.84832,-81.35623100000001
1201,8426 WOODED POINT CIR NW,Massillon,OH,44646,67900,2005-10-17,40.848514,-81.50799
1202,14315 ORRVILLE ST NW,North Lawrence,OH,44666,120000,2015-09-18,40.847638,-81.619954
1203,5245 SCHARIO RD NW,Canton,OH,44718,162000,2018-01-04,40.847685,-81.44703100000001
1204,4587 REVERE AVE NW,Massillon,OH,44647,84700,2015-10-05,40.847799,-81.521261
1205,4605 EDWIN DR NW,Canton,OH,44718,242000,2014-05-30,40.847811,-81.450508
1206,1432 EASTHILL SQ NE,Canton,OH,44714,126000,2015-10-19,40.847827,-81.355728
1207,GLENWAY AVE NW,North Lawrence,OH,44666,98000,2005-12-13,40.84919,-81.63665999999999
1208,4209 FORRER RD,Orrville,OH,44667,215000,2008-06-10,40.84817,-81.744569
1209,4047 STONE CREEK DR,Wooster,OH,44691,38500,2006-12-22,40.849292,-81.95191899999999
1210,OAKCREST AVE NW,Canton,OH,44718,95000,2008-05-28,40.849509999999995,-81.44736999999999
1211,SPRINGLAKE RD NW,Canton,OH,44718,55000,2016-02-16,40.849509999999995,-81.44736999999999
1212,8340 BLUE HERON CIR NW,Massillon,OH,44646,339000,2008-12-01,40.848372999999995,-81.505188
1213,EXECUTIVE CIR NW,Canton,OH,44718,5500,2009-03-02,40.849509999999995,-81.44736999999999
1214,1000 CHAPEL RDG NE,Canton,OH,44714,166500,2017-11-16,40.848763,-81.361262
1215,878 PINTAIL LN,Wooster,OH,44691,42900,2018-03-14,40.849647,-81.953063
1216,954 N VINE ST,Orrville,OH,44667,325000,2008-11-24,40.8493,-81.76515
1217,11203 ASHLAND RD,Wooster,OH,44691,125000,2015-11-18,40.849308,-82.122925
1218,4654 HELMSWORTH DR NE,Canton,OH,44714,220000,2015-02-09,40.84867,-81.35172
1219,SWAN LAKE CIR NW,Canton,OH,44718,47300,2018-05-16,40.849509999999995,-81.44736999999999
1220,3790 OLD HICKORY AVE NW,Canton,OH,44718,349900,2018-02-28,40.849509999999995,-81.44736999999999
1221,4709 LINDENWOOD AVE NE,Canton,OH,44714,135000,2013-09-12,40.849746,-81.356511
1222,5481 MAUREEN DR NW,Canton,OH,44718,130000,2018-10-09,40.849785,-81.45111700000001
1223,4655 ORCHARD DALE DR NW,Canton,OH,44709,96000,2015-12-21,40.850583,-81.409594
1224,FOXCHASE AVE NW,Canton,OH,44718,373000,2017-07-18,40.849509999999995,-81.44736999999999
1225,1906 48TH ST NW,Canton,OH,44709,52900,2014-02-14,40.85103,-81.390764
1226,4811 LAVERTON AVE NE,Canton,OH,44705,165000,2008-08-29,40.850427,-81.346478
1227,4612 LINDENWOOD AVE NE,Canton,OH,44714,195000,2012-09-20,40.84929,-81.356193
1228,4724 MARKET AVE N,Canton,OH,44714,79900,2011-10-06,40.849953,-81.364919
1229,6467 FRIARWOOD CIR NW,Canton,OH,44718,34500,2017-05-30,40.851383,-81.470739
1230,4192 BURBANK RD,Wooster,OH,44691,800000,2005-03-25,40.850069,-81.946887
1231,8332 YORKSHIRE ST NW,Massillon,OH,44646,375000,2010-08-06,40.851752000000005,-81.507486
1232,1804 MEADOW LN,Orrville,OH,44667,121000,2009-05-05,40.850681,-81.786336
1233,4884 HIGBEE AVE NW # 13,Canton,OH,44718,75000,2017-05-09,40.852098,-81.427584
